     2.11           OBSERVATION DATA    G (GPS)             RINEX VERSION / TYPE
sbp2rinex                               20170408 053808 UTC PGM / RUN BY / DATE
                                                            MARKER NAME
                                                            OBSERVER / AGENCY
                    Piksi                                   REC # / TYPE / VERS
                                                            ANT # / TYPE
  -2259492.0935  -3519174.6981   4799604.3015               APPROX POSITION XYZ
         0.0000         0.0000         0.0000               ANTENNA: DELTA H/E/N
     6    C1    L1    S1   C2    L2    S2                   # / TYPES OF OBSERV
  2017    04    08    04    12   34.0000000     GPS         TIME OF FIRST OBS
                                                            END OF HEADER
 17 04 08 04 12 34.0000000  0  6G02G05G12G16G25G29                  
  20776577.740  109181677.254         42.000 1  

  22996715.900  120848790.566         47.000 0  
  22996716.280   94167881.699         46.750 0  
  20607452.640  108292880.309         57.250 0  
  20607450.480   84384054.316         52.000 0  
  20692142.980  108693433.867         34.750 0  

  20738792.020  108983222.688         45.250 0  
  20738794.580   84921990.996         44.250 0  
  22281834.480  117092017.504         49.500 0  
  22281834.000   91240545.570         42.250 0  
 17 04 08 04 12 35.0000000  0  6G02G05G12G16G25G29                  
  20776730.940  109182481.355         42.500 0  

  22996114.820  120845632.262         46.750 0  
  22996115.520   94165420.672         46.750 0  
  20607807.620  108294745.551         57.500 0  
  20607805.780   84385507.750         52.000 0  
  20692498.100  108694299.102         35.000 0  

  20738587.800  108982148.520         45.250 0  
  20738590.140   84921153.984         43.750 0  
  22281328.320  117089356.094         49.250 0  
  22281327.460   91238471.746         42.000 0  
 17 04 08 04 12 36.0000000  0  6G02G05G12G16G25G29                  
  20776884.280  109183287.840         42.250 0  

  22995514.520  120842476.172         46.500 0  
  22995515.260   94162961.375         46.750 0  
  20608163.260  108296613.250         57.750 0  
  20608161.440   84386963.090         52.000 0  
  20692853.740  108695166.820         35.000 0  

  20738383.980  108981076.867         45.500 0  
  20738386.000   84920318.918         43.750 0  
  22280822.020  117086696.809         49.250 0  
  22280821.120   91236399.570         41.750 0  
 17 04 08 04 12 37.0000000  0  6G02G05G12G16G25G29                  
  20777037.800  109184094.207         42.500 0  

  22994914.220  120839319.809         46.750 0  
  22994914.460   94160501.875         46.500 0  
  20608518.700  108298480.914         58.000 0  
  20608517.160   84388418.402         52.000 0  
  20693208.880  108696034.488         35.500 0  

  20738180.420  108980005.227         45.750 0  
  20738182.380   84919483.875         43.500 0  
  22280315.660  117084037.137         49.000 0  
  22280315.140   91234327.082         42.000 0  
 17 04 08 04 12 38.0000000  0  6G02G05G12G16G25G29                  
  20777191.300  109184898.898         42.500 0  

  22994313.480  120836161.637         46.500 0  
  22994313.420   94158040.953         46.500 0  
  20608873.920  108300347.008         58.250 0  
  20608872.260   84389872.496         51.500 0  
  20693564.480  108696900.582         36.000 0  

  20737976.920  108978932.066         45.750 0  
  20737978.180   84918647.629         43.500 0  
  22279809.140  117081375.559         49.000 0  
  22279808.400   91232253.109         41.500 0  
 17 04 08 04 12 39.0000000  0  6G02G05G12G16G25G29                  
  20777344.040  109185704.316         42.500 0  

  22993712.620  120833004.082         46.250 0  
  22993712.840   94155580.512         47.000 0  
  20609229.140  108302213.953         58.000 0  
  20609227.460   84391327.250         51.750 0  
  20693919.940  108697767.516         36.000 0  

  20737773.100  108977859.793         45.750 0  
  20737774.180   84917812.086         43.750 0  
  22279302.720  117078714.465         49.000 0  
  22279302.460   91230179.539         41.750 0  
 17 04 08 04 12 40.0000000  0  6G02G05G12G16G25G29                  
  20777497.260  109186511.969         42.000 0  

  22993111.980  120829848.578         45.500 0  
  22993112.440   94153121.684         47.500 0  
  20609584.660  108304083.199         57.750 0  
  20609583.160   84392783.801         52.250 0  
  20694275.360  108698636.770         35.500 0  

  20737569.620  108976789.855         45.750 0  
  20737569.660   84916978.367         44.000 0  
  22278796.620  117076055.340         49.000 0  
  22278796.380   91228107.508         42.500 0  
 17 04 08 04 12 41.0000000  0  6G02G05G12G16G25G29                  
  20777649.800  109187317.805         42.000 0  

  22992511.260  120826691.129         45.500 0  
  22992511.680   94150661.316         47.500 0  
  20609939.980  108305950.715         57.750 0  
  20609938.340   84394239.000         52.250 0  
  20694630.600  108699504.281         35.250 0  

  20737365.260  108975718.285         45.750 0  
  20737365.480   84916143.363         43.750 0  
  22278290.160  117073394.160         48.750 0  
  22278290.700   91226033.828         42.250 0  
 17 04 08 04 12 42.0000000  0  6G02G05G12G16G25G29                  
  20777802.800  109188121.812         42.000 0  

  22991910.300  120823531.711         46.000 0  
  22991910.140   94148199.426         47.500 0  
  20610294.840  108307816.512         58.000 0  
  20610293.260   84395692.859         52.250 0  
  20694985.800  108700370.074         35.500 0  

  20737160.400  108974645.008         45.750 0  
  20737160.780   84915307.039         43.250 0  
  22277783.340  117070730.898         48.750 0  
  22277784.320   91223958.562         42.000 0  
 17 04 08 04 12 43.0000000  0  6G02G05G12G16G25G29                  
  20777955.460  109188922.691         41.250 0  

  22991308.500  120820369.023         46.500 0  
  22991308.500   94145734.996         47.500 0  
  20610649.040  108309679.270         57.750 0  
  20610647.480   84397144.352         52.000 0  
  20695339.840  108701232.844         35.500 0  

  20736955.260  108973568.758         45.750 0  
  20736955.460   84914468.398         43.000 0  
  22277276.100  117068064.262         48.750 0  
  22277277.220   91221880.660         42.000 0  
 17 04 08 04 12 44.0000000  0  6G02G05G12G16G25G29                  
  20778108.680  109189729.191         41.000 0  

  22990707.760  120817211.793         46.750 0  
  22990708.000   94143274.805         47.750 0  
  20611004.280  108311547.730         57.500 0  
  20611002.920   84398600.285         51.750 0  
  20695694.760  108702101.285         35.750 0  

  20736751.440  108972498.270         45.750 0  
  20736751.700   84913634.250         43.250 0  
  22276769.920  117065402.984         49.000 0  
  22276770.080   91219806.922         42.250 0  
 17 04 08 04 12 45.0000000  0  6G02G05G12G16G25G29                  
  20778261.940  109190535.777         40.750 0  

  22990107.060  120814054.527         46.500 0  
  22990107.300   94140814.598         47.500 0  
  20611359.600  108313416.391         57.250 0  
  20611358.380   84400056.375         51.500 0  
  20696050.620  108702969.957         35.750 0  

  20736547.740  108971428.008         45.500 0  
  20736547.740   84912800.273         43.000 0  
  22276263.760  117062741.551         48.750 0  
  22276263.280   91217733.082         42.500 0  
 17 04 08 04 12 46.0000000  0  6G02G05G12G16G25G29                  
  20778416.080  109191344.465         40.750 0  

  22989506.720  120810899.246         46.250 0  
  22989506.820   94138355.926         47.250 0  
  20611716.160  108315287.258         57.250 0  
  20611714.280   84401514.195         51.500 0  
  20696406.760  108703840.832         35.500 0  

  20736344.360  108970360.008         45.000 0  
  20736344.460   84911968.055         43.000 0  
  22275757.900  117060081.988         48.750 0  
  22275757.300   91215660.684         42.250 0  
 17 04 08 04 12 47.0000000  0  6G02G05G12G16G25G29                  
  20778570.660  109192157.777         40.750 0  

  22988906.960  120807748.434         46.000 0  
  22988907.340   94135900.742         47.250 0  
  20612073.440  108317162.836         57.500 0  
  20612071.360   84402975.672         51.500 0  
  20696763.940  108704716.406         35.500 0  

  20736141.840  108969296.773         44.750 0  
  20736141.920   84911139.570         42.500 0  
  22275252.220  117057426.777         48.750 0  
  22275252.260   91213591.688         42.250 0  
 17 04 08 04 12 48.0000000  0  6G02G05G12G16G25G29                  
  20778724.600  109192966.527         40.500 0  

  22988306.500  120804592.906         45.750 0  
  22988306.880   94133441.887         47.250 0  
  20612429.600  108319033.926         57.500 0  
  20612427.380   84404433.656         51.500 0  
  20697120.140  108705587.512         35.000 0  

  20735938.900  108968229.102         45.000 0  
  20735938.900   84910307.598         42.500 0  
  22274746.140  117054766.750         48.750 0  
  22274746.460   91211518.930         42.500 0  
 17 04 08 04 12 49.0000000  0  6G02G05G12G16G25G29                  
  20778878.860  109193776.168         40.750 0  

  22987706.140  120801438.121         45.750 0  
  22987706.560   94130983.609         47.000 0  
  20612785.980  108320906.004         58.000 0  
  20612783.740   84405892.414         51.500 0  
  20697476.780  108706459.582         35.000 0  

  20735736.020  108967162.453         45.250 0  
  20735735.560   84909476.449         42.750 0  
  22274239.940  117052107.352         48.750 0  
  22274240.840   91209446.672         42.500 0  
 17 04 08 04 12 50.0000000  0  6G02G05G12G16G25G29                  
  20779033.540  109194587.855         41.000 0  

  22987106.100  120798285.262         45.750 0  
  22987106.480   94128526.832         47.250 0  
  20613142.840  108322780.230         58.000 0  
  20613140.560   84407352.844         51.750 0  
  20697834.360  108707333.828         35.500 0  

  20735533.380  108966098.027         45.000 0  
  20735532.900   84908647.016         42.500 0  
  22273734.400  117049449.773         48.500 0  
  22273735.060   91207375.820         42.500 0  
 17 04 08 04 12 51.0000000  0  6G02G05G12G16G25G29                  
  20779188.420  109195403.961         40.750 0  

  22986506.900  120795136.664         45.500 0  
  22986507.040   94126073.387         47.000 0  
  20613500.520  108324658.961         58.250 0  
  20613498.180   84408816.781         51.750 0  
  20698191.900  108708212.543         35.750 0  

  20735331.820  108965038.133         44.750 0  
  20735331.200   84907821.121         42.250 0  
  22273229.380  117046796.363         48.250 0  
  22273230.000   91205308.211         42.500 0  
 17 04 08 04 12 52.0000000  0  6G02G05G12G16G25G29                  
  20779343.340  109196219.180         40.500 0  

  22985907.600  120791987.066         45.750 0  
  22985907.800   94123619.141         46.750 0  
  20613858.000  108326536.902         57.750 0  
  20613855.700   84410280.109         52.000 0  
  20698549.220  108709090.477         36.000 0  

  20735130.040  108963977.516         45.000 0  
  20735129.500   84906994.660         42.250 0  
  22272723.880  117044141.809         48.250 0  
  22272724.540   91203239.730         42.500 0  
 17 04 08 04 12 53.0000000  0  6G02G05G12G16G25G29                  
  20779497.740  109197031.602         40.500 0  

  22985308.020  120788834.508         45.500 0  
  22985307.980   94121162.605         47.000 0  
  20614214.820  108328412.137         57.250 0  
  20614212.660   84411741.324         52.250 0  
  20698906.260  108709965.730         36.250 0  

  20734927.860  108962914.234         45.000 0  
  20734927.540   84906166.121         42.500 0  
  22272217.900  117041484.211         48.250 0  
  22272219.020   91201168.867         42.500 0  
 17 04 08 04 12 54.0000000  0  6G02G05G12G16G25G29                  
  20779652.280  109197842.934         40.750 0  

  22984708.160  120785680.746         45.750 0  
  22984707.820   94118705.109         47.250 0  
  20614571.600  108330286.387         57.250 0  
  20614569.240   84413201.770         52.000 0  
  20699262.620  108710839.973         36.500 0  

  20734725.280  108961850.016         45.250 0  
  20734725.000   84905336.859         42.500 0  
  22271711.940  117038825.285         48.000 0  
  22271712.840   91199096.973         42.250 0  
 17 04 08 04 12 55.0000000  0  6G02G05G12G16G25G29                  
  20779806.520  109198653.809         40.750 1  

  22984108.040  120782526.359         46.000 0  
  22984107.600   94116247.156         47.000 0  
  20614928.140  108332160.254         57.250 0  
  20614925.660   84414661.922         51.750 0  
  20699618.080  108711713.836         36.250 0  

  20734522.820  108960785.477         45.250 0  
  20734522.060   84904507.336         42.500 0  
  22271206.020  117036165.625         47.750 0  
  22271206.680   91197024.504         42.000 0  
 17 04 08 04 12 56.0000000  0  6G02G05G12G16G25G29                  
  20779961.280  109199465.660         40.500 0  

  22983507.940  120779372.828         46.250 0  
  22983507.680   94113789.840         47.250 0  
  20615284.860  108334035.191         57.250 0  
  20615282.420   84416122.906         51.750 0  
  20699975.000  108712588.785         36.250 0  

  20734320.500  108959722.055         45.500 0  
  20734320.220   84903678.703         42.750 0  
  22270699.880  117033506.695         48.000 0  
  22270700.660   91194952.609         41.750 0  
 17 04 08 04 12 57.0000000  0  6G02G05G12G16G25G29                  
  20780115.520  109200277.699         40.500 0  

  22982907.700  120776219.328         46.250 0  
  22982907.580   94111332.574         47.250 0  
  20615641.480  108335910.426         57.250 0  
  20615638.860   84417584.125         51.750 0  
  20700331.740  108713464.016         36.500 0  

  20734118.400  108958658.961         45.500 0  
  20734117.860   84902850.305         42.500 0  
  22270193.980  117030847.727         48.000 0  
  22270194.780   91192880.668         42.000 0  
 17 04 08 04 12 58.0000000  0  6G02G05G12G16G25G29                  
  20780270.140  109201091.922         40.750 0  

  22982308.080  120773067.883         46.000 0  
  22982307.620   94108876.891         46.750 0  
  20615998.600  108337787.938         57.500 0  
  20615996.020   84419047.109         52.250 0  
  20700689.580  108714341.539         36.500 0  

  20733916.340  108957598.215         45.250 0  
  20733916.040   84902023.750         42.250 0  
  22269688.660  117028190.668         48.250 0  
  22269689.020   91190810.242         42.250 0  
 17 04 08 04 12 59.0000000  0  6G02G05G12G16G25G29                  
  20780425.240  109201906.680         41.000 0  

  22981708.520  120769916.855         46.000 0  
  22981707.240   94106421.535         46.500 0  
  20616355.780  108339666.086         57.750 0  
  20616353.300   84420510.602         52.250 0  
  20701046.540  108715219.676         36.750 0  

  20733713.820  108956538.168         45.000 0  
  20733714.480   84901197.723         42.750 0  
  22269183.200  117025533.922         48.250 0  
  22269183.320   91188740.039         42.000 0  
 17 04 08 04 13  0.0000000  0  6G02G05G12G16G25G29                  
  20780580.500  109202722.891         41.500 0  

  22981108.880  120766767.125         46.000 0  
  22981107.880   94103967.195         46.750 0  
  20616713.120  108341545.781         58.000 0  
  20616711.120   84421975.289         52.000 0  
  20701404.540  108716099.383         36.500 0  

  20733512.160  108955479.695         45.000 0  
  20733513.240   84900372.938         42.750 0  
  22268677.560  117022878.379         48.500 0  
  22268677.840   91186670.777         42.000 0  
 17 04 08 04 13  1.0000000  0  6G02G05G12G16G25G29                  
  20780735.480  109203534.539         41.500 0  

  22980508.280  120763612.688         46.250 0  
  22980507.440   94101509.188         46.500 0  
  20617069.460  108343420.992         58.000 0  
  20617067.820   84423436.496         51.750 0  
  20701761.560  108716974.586         36.500 0  

  20733310.100  108954416.793         45.250 0  
  20733310.560   84899544.691         42.750 0  
  22268171.180  117020217.996         48.500 0  
  22268171.740   91184597.754         42.000 0  
 17 04 08 04 13  2.0000000  0  6G02G05G12G16G25G29                  
  20780891.040  109204349.199         41.500 0  

  22979908.280  120760461.125         46.250 0  
  22979907.920   94099053.418         46.250 0  
  20617426.920  108345299.309         58.000 0  
  20617425.460   84424900.105         52.000 0  
  20702119.000  108717852.898         36.250 0  

  20733108.360  108953357.059         45.250 0  
  20733108.980   84898718.922         42.500 0  
  22267665.240  117017560.387         48.250 0  
  22267666.360   91182526.891         42.250 0  
 17 04 08 04 13  3.0000000  0  6G02G05G12G16G25G29                  
  20781046.640  109205161.988         42.000 0  

  22979308.120  120757307.539         46.500 0  
  22979308.120   94096596.074         46.250 0  
  20617784.360  108347175.844         58.000 0  
  20617782.660   84426362.332         52.250 0  
  20702475.520  108718729.445         35.750 0  

  20732906.000  108952295.582         45.000 0  
  20732906.660   84897891.793         42.750 0  
  22267159.100  117014900.656         48.000 0  
  22267160.380   91180454.359         42.500 0  
 17 04 08 04 13  4.0000000  0  6G02G05G12G16G25G29                  
  20781203.140  109205983.965         41.750 0  

  22978709.360  120754163.016         46.250 0  
  22978709.400   94094145.793         46.250 0  
  20618143.500  108349061.676         57.750 0  
  20618141.600   84427831.805         52.250 0  
  20702833.780  108719615.266         35.500 0  

  20732705.360  108951243.465         44.750 0  
  20732706.320   84897071.949         42.750 0  
  22266654.300  117012249.871         48.000 0  
  22266655.760   91178388.812         42.500 0  
 17 04 08 04 13  5.0000000  0  6G02G05G12G16G25G29                  
  20781359.000  109206802.602         42.000 0  

  22978110.360  120751015.027         46.250 0  
  22978110.260   94091692.805         46.500 0  
  20618501.840  108350944.273         57.750 0  
  20618500.040   84429298.754         52.250 0  
  20703192.020  108720497.871         35.750 0  

  20732504.320  108950188.160         44.500 0  
  20732505.520   84896249.637         42.750 0  
  22266148.960  117009595.492         48.000 0  
  22266150.820   91176320.465         42.250 0  
 17 04 08 04 13  6.0000000  0  6G02G05G12G16G25G29                  
  20781514.760  109207621.098         42.000 0  

  22977511.300  120747866.754         46.500 0  
  22977510.960   94089239.590         46.500 0  
  20618860.080  108352826.812         58.000 0  
  20618858.240   84430765.664         51.750 0  
  20703550.580  108721380.418         35.750 0  

  20732303.200  108949132.852         45.000 0  
  20732304.980   84895427.297         42.750 0  
  22265643.900  117006940.734         48.250 0  
  22265645.400   91174251.809         42.250 0  
 17 04 08 04 13  7.0000000  0  6G02G05G12G16G25G29                  
  20781670.800  109208440.309         42.000 0  

  22976912.200  120744719.047         46.000 0  
  22976911.900   94086786.836         47.000 0  
  20619218.440  108354710.160         58.000 0  
  20619216.620   84432233.195         52.000 0  
  20703908.580  108722263.758         36.000 0  

  20732102.800  108948078.398         45.250 0  
  20732104.320   84894605.637         43.250 0  
  22265138.780  117004286.430         47.750 0  
  22265139.980   91172183.508         42.250 0  
 17 04 08 04 13  8.0000000  0  6G02G05G12G16G25G29                  
  20781826.740  109209258.715         42.250 0  

  22976313.120  120741570.387         46.250 0  
  22976313.020   94084333.332         46.750 0  
  20619576.960  108356592.785         58.000 0  
  20619574.920   84433700.172         52.250 0  
  20704267.620  108723146.402         36.000 0  

  20731902.700  108947023.277         45.250 0  
  20731903.960   84893783.465         43.250 0  
  22264633.480  117001631.078         47.750 0  
  22264634.840   91170114.395         42.250 0  
 17 04 08 04 13  9.0000000  0  6G02G05G12G16G25G29                  
  20781983.080  109210079.262         42.500 0  

  22975714.260  120738423.758         46.250 0  
  22975714.000   94081881.406         46.500 0  
  20619935.820  108358477.656         58.250 0  
  20619933.560   84435168.895         52.250 0  
  20704626.740  108724031.242         36.250 0  

  20731702.900  108945970.445         45.750 0  
  20731703.200   84892963.066         43.250 0  
  22264128.820  116998977.621         48.000 0  
  22264129.480   91168046.766         42.250 0  
 17 04 08 04 13 10.0000000  0  6G02G05G12G16G25G29                  
  20782139.000  109210898.457         42.750 0  

  22975115.260  120735275.629         46.000 0  
  22975114.760   94079428.312         46.250 0  
  20620294.440  108360361.266         58.250 0  
  20620291.820   84436636.641         52.250 0  
  20704985.700  108724914.867         36.500 0  

  20731501.940  108944916.430         45.750 0  
  20731502.500   84892141.734         43.250 0  
  22263623.840  116996322.551         48.000 0  
  22263624.040   91165977.875         42.500 0  
 17 04 08 04 13 11.0000000  0  6G02G05G12G16G25G29                  
  20782295.420  109211716.578         42.750 0  

  22974516.020  120732126.273         45.750 0  
  22974515.320   94076974.258         46.250 0  
  20620652.760  108362243.883         58.000 0  
  20620649.840   84438103.609         52.250 0  
  20705343.580  108725797.496         36.250 0  

  20731301.340  108943861.453         45.750 0  
  20731301.900   84891319.672         43.250 0  
  22263117.960  116993666.164         47.750 0  
  22263118.280   91163907.945         42.500 0  
 17 04 08 04 13 12.0000000  0  6G02G05G12G16G25G29                  
  20782451.680  109212535.863         42.250 0  

  22973917.000  120728977.949         46.250 0  
  22973916.260   94074521.016         46.000 0  
  20621011.260  108364127.770         58.000 0  
  20621008.100   84439571.562         52.250 0  
  20705702.080  108726681.375         36.250 0  

  20731100.600  108942807.801         45.500 0  
  20731102.340   84890498.645         43.250 0  
  22262612.160  116991010.688         47.250 0  
  22262612.920   91161838.746         42.750 0  
 17 04 08 04 13 13.0000000  0  6G02G05G12G16G25G29                  
  20782608.480  109213358.293         42.250 0  

  22973318.240  120725832.633         46.250 0  
  22973317.780   94072070.113         46.000 0  
  20621370.380  108366014.883         58.500 0  
  20621367.160   84441042.035         52.000 0  
  20706061.160  108727568.512         35.750 0  

  20730901.060  108941757.430         45.500 0  
  20730902.600   84889680.160         43.000 0  
  22262106.680  116988358.117         46.750 0  
  22262108.140   91159771.793         42.750 0  
 17 04 08 04 13 14.0000000  0  6G02G05G12G16G25G29                  
  20782764.840  109214179.004         42.250 0  

  22972719.180  120722685.477         45.500 0  
  22972719.000   94069617.773         46.000 0  
  20621729.100  108367900.391         58.500 0  
  20621725.980   84442511.258         52.000 0  
  20706420.120  108728454.004         35.750 0  

  20730700.880  108940705.500         45.250 0  
  20730702.200   84888860.465         43.250 0  
  22261601.440  116985703.574         46.250 0  
  22261602.960   91157703.316         42.750 0  
 17 04 08 04 13 15.0000000  0  6G02G05G12G16G25G29                  
  20782921.660  109215002.480         42.250 0  

  22972120.680  120719540.938         45.250 0  
  22972120.440   94067167.477         45.750 0  
  20622088.280  108369788.746         58.250 0  
  20622085.560   84443982.699         52.000 0  
  20706778.740  108729342.359         36.000 0  

  20730501.480  108939656.477         45.250 0  
  20730502.480   84888043.023         43.500 0  
  22261096.240  116983051.551         46.000 0  
  22261098.540   91155636.801         43.000 0  
 17 04 08 04 13 16.0000000  0  6G02G05G12G16G25G29                  
  20783078.420  109215826.703         42.000 0  

  22971522.480  120716397.023         45.500 0  
  22971522.360   94064717.664         45.500 0  
  20622447.560  108371677.941         58.250 0  
  20622445.400   84445454.797         52.250 0  
  20707138.160  108730231.547         35.500 0  

  20730302.040  108938608.336         45.750 0  
  20730302.700   84887226.289         43.750 0  
  22260591.140  116980400.016         46.000 0  
  22260593.720   91153570.660         42.750 0  
 17 04 08 04 13 17.0000000  0  6G02G05G12G16G25G29                  
  20783234.920  109216651.531         42.000 0  

  22970924.220  120713253.566         45.250 0  
  22970923.900   94062268.215         45.250 0  
  20622807.000  108373567.848         58.000 0  
  20622804.880   84446927.445         52.500 0  
  20707497.820  108731121.461         35.250 0  

  20730102.740  108937560.969         45.750 0  
  20730103.120   84886410.164         43.750 0  
  22260086.380  116977748.863         46.000 0  
  22260089.200   91151504.820         42.500 0  
 17 04 08 04 13 18.0000000  0  6G02G05G12G16G25G29                  
  20783391.420  109217476.484         42.250 0  

  22970326.060  120710110.098         45.750 0  
  22970326.020   94059818.746         45.500 0  
  20623166.700  108375457.969         58.000 0  
  20623164.740   84448400.258         52.500 0  
  20707858.140  108732011.586         35.250 0  

  20729903.660  108936513.879         45.500 0  
  20729904.220   84885594.234         43.500 0  
  22259581.480  116975097.582         46.000 0  
  22259585.280   91149438.879         42.250 0  
 17 04 08 04 13 19.0000000  0  6G02G05G12G16G25G29                  
  20783548.160  109218303.180         42.250 0  

  22969728.320  120706968.242         46.250 0  
  22969728.320   94057370.555         45.500 0  
  20623526.720  108377349.930         57.500 0  
  20623525.260   84449874.504         52.500 0  
  20708218.060  108732903.547         35.750 0  

  20729704.900  108935468.664         45.750 0  
  20729705.080   84884779.766         43.500 0  
  22259077.060  116972447.785         46.000 0  
  22259081.560   91147374.109         42.000 0  
 17 04 08 04 13 20.0000000  0  6G02G05G12G16G25G29                  
  20783704.800  109219130.137         42.250 0  

  22969130.900  120703826.516         46.500 0  
  22969130.400   94054922.445         45.500 0  
  20623886.740  108379242.234         57.500 0  
  20623885.200   84451349.020         52.750 0  
  20708577.360  108733795.848         35.750 0  

  20729506.460  108934423.855         46.000 0  
  20729506.320   84883965.637         43.750 0  
  22258572.500  116969798.012         45.250 0  
  22258576.900   91145309.336         42.250 0  
 17 04 08 04 13 21.0000000  0  6G02G05G12G16G25G29                  
  20783861.960  109219957.141         42.000 0  

  22968533.640  120700684.707         47.000 0  
  22968532.540   94052474.277         45.750 0  
  20624246.980  108381134.695         57.500 0  
  20624245.620   84452823.656         53.500 0  
  20708937.260  108734688.309         35.750 0  

  20729308.020  108933379.270         46.000 0  
  20729307.680   84883151.656         43.750 0  
  22258068.160  116967148.039         45.000 0  
  22258072.240   91143244.430         42.750 0  
 17 04 08 04 13 22.0000000  0  6G02G05G12G16G25G29                  
  20784019.040  109220783.531         41.750 0  

  22967935.820  120697542.148         47.500 0  
  22967934.460   94050025.520         45.250 0  
  20624606.900  108383026.625         57.500 0  
  20624605.680   84454297.883         52.500 0  
  20709296.860  108735580.258         35.500 0  

  20729109.220  108932334.191         46.000 0  
  20729108.920   84882337.301         42.750 0  
  22257563.640  116964497.191         45.250 0  
  22257567.400   91141178.848         42.250 0  
 17 04 08 04 13 23.0000000  0  6G02G05G12G16G25G29                  
  20784176.100  109221608.586         42.000 0  

  22967337.680  120694398.133         47.500 0  
  22967336.240   94047575.629         45.000 0  
  20624966.720  108384917.332         57.500 0  
  20624965.360   84455771.152         52.500 0  
  20709657.320  108736470.965         35.500 0  

  20728910.580  108931287.945         46.250 0  
  20728910.120   84881522.031         42.750 0  
  22257058.880  116961844.793         44.750 0  
  22257062.580   91139112.027         42.250 0  
 17 04 08 04 13 24.0000000  0  6G02G05G12G16G25G29                  
  20784333.120  109222431.922         41.750 0  

  22966739.180  120691252.250         47.500 0  
  22966737.360   94045124.285         44.500 0  
  20625326.280  108386806.402         57.750 0  
  20625324.920   84457243.141         52.500 0  
  20710017.060  108737360.031         35.750 0  

  20728711.200  108930240.105         46.250 0  
  20728710.420   84880705.535         42.750 0  
  22256554.180  116959190.418         45.000 0  
  22256557.740   91137043.676         41.750 0  
 17 04 08 04 13 25.0000000  0  6G02G05G12G16G25G29                  
  20784490.080  109223254.504         42.000 0  

  22966140.320  120688105.473         47.500 0  
  22966138.620   94042672.238         45.000 0  
  20625685.700  108388694.824         58.000 0  
  20625683.880   84458714.637         52.750 0  
  20710377.140  108738248.461         35.750 0  

  20728511.900  108929191.656         46.750 0  
  20728510.420   84879888.566         43.000 0  
  22256048.560  116956535.016         44.500 0  
  22256052.700   91134974.531         42.000 0  
 17 04 08 04 13 26.0000000  0  6G02G05G12G16G25G29                  
  20784647.400  109224080.180         41.750 0  

  22965542.420  120684961.648         47.250 0  
  22965540.460   94040222.508         45.250 0  
  20626045.560  108390586.445         58.000 0  
  20626043.900   84460188.617         53.000 0  
  20710737.120  108739140.062         36.000 0  

  20728313.260  108928146.445         47.000 0  
  20728311.260   84879074.109         43.250 0  
  22255543.560  116953882.473         44.750 0  
  22255547.600   91132907.621         42.250 0  
 17 04 08 04 13 27.0000000  0  6G02G05G12G16G25G29                  
  20784804.480  109224906.309         41.750 0  

  22964944.300  120681818.160         47.500 0  
  22964942.520   94037773.027         45.500 0  
  20626405.780  108392478.613         58.250 0  
  20626403.760   84461663.023         53.000 0  
  20711097.460  108740032.258         36.000 0  

  20728114.460  108927101.859         46.750 0  
  20728112.620   84878260.129         43.250 0  
  22255038.800  116951230.145         44.750 0  
  22255043.060   91130840.863         42.500 0  
 17 04 08 04 13 28.0000000  0  6G02G05G12G16G25G29                  
  20784962.280  109225738.324         41.500 0  

  22964347.020  120678680.430         47.750 0  
  22964344.940   94035328.020         45.750 0  
  20626766.980  108394376.766         58.250 0  
  20626764.680   84463142.098         53.000 0  
  20711458.280  108740930.414         35.750 0  

  20727916.660  108926063.305         46.500 0  
  20727915.540   84877450.875         43.000 0  
  22254534.780  116948583.469         44.750 0  
  22254539.480   91128778.500         43.000 0  
 17 04 08 04 13 29.0000000  0  6G02G05G12G16G25G29                  
  20785119.620  109226565.824         41.250 0  

  22963748.980  120675538.020         47.500 0  
  22963746.840   94032879.387         45.750 0  
  20627127.300  108396270.480         58.000 0  
  20627124.880   84464617.719         52.500 0  
  20711818.320  108741824.105         35.500 0  

  20727718.040  108925020.379         46.250 0  
  20727717.240   84876638.188         43.250 0  
  22254030.540  116945931.996         45.000 0  
  22254034.940   91126712.418         42.750 0  
 17 04 08 04 13 30.0000000  0  6G02G05G12G16G25G29                  
  20785277.160  109227394.758         40.750 0  

  22963151.040  120672396.941         47.750 0  
  22963149.260   94030431.781         45.750 0  
  20627487.800  108398165.738         58.000 0  
  20627485.600   84466094.535         52.250 0  
  20712179.060  108742719.355         36.000 0  

  20727519.520  108923979.039         46.750 0  
  20727519.160   84875826.750         43.250 0  
  22253526.580  116943281.742         45.000 0  
  22253530.220   91124647.289         42.750 0  
 17 04 08 04 13 31.0000000  0  6G02G05G12G16G25G29                  
  20785434.800  109228219.508         40.750 0  

  22962552.300  120669251.520         48.250 0  
  22962550.420   94027980.793         45.750 0  
  20627847.460  108400056.891         58.000 0  
  20627845.540   84467568.152         52.250 0  
  20712538.660  108743610.512         36.250 0  

  20727320.500  108922933.645         46.500 0  
  20727320.360   84875012.148         43.250 0  
  22253022.040  116940627.055         45.750 0  
  22253025.260   91122578.688         42.250 0  
 17 04 08 04 13 32.0000000  0  6G02G05G12G16G25G29                  
  20785592.260  109229044.332         41.000 0  

  22961953.500  120666106.035         48.250 0  
  22961951.980   94025529.762         45.500 0  
  20628207.100  108401948.203         58.250 0  
  20628205.320   84469041.895         52.000 0  
  20712898.120  108744501.840         36.250 0  

  20727121.940  108921888.477         46.750 0  
  20727121.440   84874197.738         43.500 0  
  22252517.180  116937972.172         45.750 0  
  22252520.140   91120509.949         42.000 0  
 17 04 08 04 13 33.0000000  0  6G02G05G12G16G25G29                  
  20785750.000  109229869.824         40.750 0  

  22961355.060  120662961.078         47.250 0  
  22961353.740   94023079.133         45.500 0  
  20628566.880  108403840.273         58.500 0  
  20628565.380   84470516.230         52.000 0  
  20713257.760  108745393.910         36.250 0  

  20726923.280  108920844.109         47.000 0  
  20726922.720   84873383.934         43.500 0  
  22252012.040  116935317.715         45.750 0  
  22252014.800   91118441.531         42.000 0  
 17 04 08 04 13 34.0000000  0  6G02G05G12G16G25G29                  
  20785907.720  109230697.016         41.000 0  

  22960756.860  120659817.703         47.000 0  
  22960756.200   94020629.754         46.000 0  
  20628927.340  108405734.152         58.250 0  
  20628925.800   84471991.973         52.250 0  
  20713618.400  108746287.766         35.750 0  

  20726724.560  108919801.602         46.750 0  
  20726724.560   84872571.590         43.500 0  
  22251507.220  116932664.719         45.750 0  
  22251509.940   91116374.270         42.000 0  
 17 04 08 04 13 35.0000000  0  6G02G05G12G16G25G29                  
  20786066.260  109231528.512         41.000 0  

  22960159.680  120656678.488         47.000 0  
  22960158.840   94018183.598         45.750 0  
  20629289.000  108407632.418         58.250 0  
  20629287.180   84473471.133         52.500 0  
  20713980.940  108747186.055         35.750 0  

  20726526.940  108918763.562         46.500 0  
  20726527.500   84871762.719         43.500 0  
  22251003.180  116930015.789         45.500 0  
  22251006.040   91114310.145         42.250 0  
 17 04 08 04 13 36.0000000  0  6G02G05G12G16G25G29                  
  20786224.780  109232362.855         40.750 0  

  22959562.920  120653542.004         46.750 0  
  22959562.020   94015739.578         46.000 0  
  20629650.960  108409533.625         58.500 0  
  20629649.400   84474952.586         52.750 0  
  20714342.580  108748087.270         36.000 0  

  20726329.820  108917728.520         46.250 0  
  20726330.460   84870956.172         43.500 0  
  22250499.740  116927369.449         45.750 0  
  22250502.420   91112248.066         42.250 0  
 17 04 08 04 13 37.0000000  0  6G02G05G12G16G25G29                  
  20786383.260  109233198.980         40.750 0  

  22958966.400  120650407.152         46.750 0  
  22958965.440   94013296.828         46.000 0  
  20630013.540  108411436.707         58.750 0  
  20630011.440   84476435.500         53.000 0  
  20714704.520  108748990.352         36.000 0  

  20726132.800  108916695.395         46.250 0  
  20726133.860   84870151.133         43.750 0  
  22249996.600  116924724.652         46.000 0  
  22249998.880   91110187.172         42.250 0  
 17 04 08 04 13 38.0000000  0  6G02G05G12G16G25G29                  
  20786541.600  109234032.844         40.500 0  

  22958369.420  120647269.902         46.750 0  
  22958368.440   94010852.215         46.250 0  
  20630375.520  108413337.609         58.000 0  
  20630373.220   84477916.711         53.000 0  
  20715066.160  108749891.258         36.250 0  

  20725935.660  108915660.148         46.750 0  
  20725936.840   84869344.441         43.750 0  
  22249493.120  116922077.348         46.500 0  
  22249495.220   91108124.328         42.000 0  
 17 04 08 04 13 39.0000000  0  6G02G05G12G16G25G29                  
  20786699.880  109234868.789         40.000 0  

  22957772.900  120644134.625         46.500 0  
  22957771.640   94008409.133         46.250 0  
  20630737.860  108415240.719         57.750 0  
  20630735.320   84479399.648         52.750 0  
  20715428.400  108750794.375         35.500 0  

  20725739.020  108914627.176         46.750 0  
  20725739.700   84868539.504         43.750 0  
  22248990.000  116919431.875         46.500 0  
  22248991.720   91106062.941         42.500 0  
 17 04 08 04 13 40.0000000  0  6G02G05G12G16G25G29                  
  20786858.240  109235702.004         40.000 0  

  22957175.620  120640996.496         46.500 0  
  22957174.340   94005963.816         46.250 0  
  20631099.540  108417141.188         57.750 0  
  20631096.960   84480880.523         52.750 0  
  20715789.980  108751694.820         35.750 0  

  20725542.200  108913591.598         47.250 0  
  20725542.280   84867732.559         43.750 0  
  22248486.260  116916783.477         46.750 0  
  22248488.120   91103999.219         42.500 0  
 17 04 08 04 13 41.0000000  0  6G02G05G12G16G25G29                  
  20787016.740  109236535.605         39.250 0  

  22956578.480  120637858.566         46.500 0  
  22956577.240   94003518.680         46.000 0  
  20631461.360  108419042.105         57.250 0  
  20631458.580   84482361.750         52.250 0  
  20716151.580  108752595.754         35.500 0  

  20725345.760  108912556.535         47.000 0  
  20725345.060   84866925.992         43.500 0  
  22247982.520  116914135.148         47.000 0  
  22247984.120   91101935.590         42.750 0  
 17 04 08 04 13 42.0000000  0  6G02G05G12G16G25G29                  
  20787174.840  109237368.988         39.000 0  

  22955981.560  120634720.320         46.500 0  
  22955980.260   94001073.281         46.500 0  
  20631823.120  108420942.910         57.500 0  
  20631820.360   84483842.891         52.250 0  
  20716513.520  108753496.555         35.500 0  

  20725149.100  108911521.422         46.750 0  
  20725147.920   84866119.418         43.250 0  
  22247478.780  116911486.383         47.250 0  
  22247480.380   91099871.609         43.000 0  
 17 04 08 04 13 43.0000000  0  6G02G05G12G16G25G29                  
  20787333.400  109238205.141         39.250 0  

  22955384.860  120631584.695         47.000 0  
  22955383.820   93998629.945         46.500 0  
  20632185.500  108422846.586         57.750 0  
  20632182.700   84485326.270         52.500 0  
  20716876.120  108754400.234         36.000 0  

  20724953.060  108910489.219         46.750 0  
  20724951.080   84865315.086         43.250 0  
  22246975.160  116908840.137         47.250 0  
  22246977.140   91097809.602         43.000 0  
 17 04 08 04 13 44.0000000  0  6G02G05G12G16G25G29                  
  20787492.080  109239038.160         39.750 0  

  22954787.560  120628445.801         47.000 0  
  22954786.580   93996184.035         46.750 0  
  20632547.180  108424747.191         58.250 0  
  20632544.280   84486807.254         52.500 0  
  20717237.580  108755300.840         36.500 0  

  20724756.000  108909454.016         46.750 0  
  20724754.020   84864508.434         42.750 0  
  22246471.000  116906190.496         47.250 0  
  22246473.000   91095744.949         43.000 0  
 17 04 08 04 13 45.0000000  0  6G02G05G12G16G25G29                  
  20787651.500  109239875.340         39.250 0  

  22954190.920  120625310.957         46.750 0  
  22954189.940   93993741.289         47.000 0  
  20632909.640  108426652.086         58.250 0  
  20632906.940   84488291.586         52.750 0  
  20717600.100  108756205.730         36.250 0  

  20724559.900  108908423.145         46.750 0  
  20724556.940   84863705.152         42.750 0  
  22245967.200  116903544.805         47.000 0  
  22245969.260   91093683.352         43.000 0  
 17 04 08 04 13 46.0000000  0  6G02G05G12G16G25G29                  
  20787811.000  109240712.582         38.750 0  

  22953594.220  120622176.047         46.500 0  
  22953593.140   93991298.500         46.750 0  
  20633272.040  108428557.148         58.500 0  
  20633269.580   84489776.043         52.750 0  
  20717962.480  108757110.801         35.750 0  

  20724364.120  108907392.504         46.750 0  
  20724360.640   84862902.051         42.750 0  
  22245463.620  116900898.930         47.000 0  
  22245465.500   91091621.625         43.000 0  
 17 04 08 04 13 47.0000000  0  6G02G05G12G16G25G29                  
  20787969.520  109241547.695         39.000 0  

  22952997.100  120619038.855         46.000 0  
  22952996.240   93988853.938         46.750 0  
  20633634.000  108430460.152         58.750 0  
  20633631.800   84491258.895         52.750 0  
  20718325.080  108758013.797         36.000 0  

  20724167.200  108906359.859         46.250 0  
  20724164.060   84862097.402         42.500 0  
  22244960.240  116898250.684         47.500 0  
  22244961.780   91089558.035         43.000 0  
 17 04 08 04 13 48.0000000  0  6G02G05G12G16G25G29                  
  20788128.320  109242383.371         39.250 0  

  22952399.900  120615902.133         45.750 0  
  22952399.300   93986409.723         46.500 0  
  20633996.020  108432363.844         59.000 0  
  20633994.000   84492742.281         52.750 0  
  20718686.900  108758917.492         36.250 0  

  20723970.580  108905327.953         46.250 0  
  20723967.900   84861293.305         42.250 0  
  22244456.700  116895602.754         47.750 0  
  22244458.140   91087494.723         43.250 0  
 17 04 08 04 13 49.0000000  0  6G02G05G12G16G25G29                  
  20788287.140  109243220.082         39.500 0  

  22951803.040  120612766.266         46.000 0  
  22951802.440   93983966.176         46.500 0  
  20634358.200  108434268.602         58.750 0  
  20634356.520   84494226.504         52.500 0  
  20719049.340  108759822.262         36.500 0  

  20723774.560  108904297.180         46.500 0  
  20723772.260   84860490.105         42.250 0  
  22243953.320  116892955.574         48.000 0  
  22243954.880   91085431.980         43.500 0  
 17 04 08 04 13 50.0000000  0  6G02G05G12G16G25G29                  
  20788446.160  109244055.832         40.000 0  

  22951205.800  120609629.312         46.250 0  
  22951205.520   93981521.801         46.250 0  
  20634720.100  108436172.539         58.250 0  
  20634718.820   84495710.086         52.500 0  
  20719411.480  108760726.191         36.250 0  

  20723578.340  108903265.637         46.500 0  
  20723575.520   84859686.297         42.500 0  
  22243449.340  116890307.223         48.250 0  
  22243451.060   91083368.320         43.500 0  
 17 04 08 04 13 51.0000000  0  6G02G05G12G16G25G29                  
  20788605.800  109244893.516         40.500 0  

  22950608.840  120606494.176         46.250 0  
  22950609.080   93979078.832         46.500 0  
  20635082.940  108438078.488         58.000 0  
  20635081.400   84497195.230         52.500 0  
  20719774.320  108761632.152         36.000 0  

  20723382.480  108902236.148         46.500 0  
  20723379.280   84858884.086         42.500 0  
  22242945.380  116887660.551         48.250 0  
  22242947.680   91081305.965         43.750 0  
 17 04 08 04 13 52.0000000  0  6G02G05G12G16G25G29                  
  20788766.000  109245732.496         40.250 0  

  22950012.380  120603360.227         46.500 0  
  22950012.900   93976636.793         46.500 0  
  20635446.040  108439985.859         58.000 0  
  20635444.220   84498681.484         52.500 0  
  20720136.840  108762539.520         36.250 0  

  20723186.800  108901208.141         46.750 0  
  20723183.240   84858083.051         42.250 0  
  22242441.560  116885014.961         48.000 0  
  22242443.260   91079244.453         43.500 0  
 17 04 08 04 13 53.0000000  0  6G02G05G12G16G25G29                  
  20788925.280  109246569.973         40.000 0  

  22949415.820  120600224.629         46.500 0  
  22949416.280   93974193.469         47.000 0  
  20635808.960  108441891.812         58.250 0  
  20635806.700   84500166.633         52.000 0  
  20720499.360  108763445.473         36.500 0  

  20722990.900  108900178.762         46.750 0  
  20722987.360   84857280.945         42.500 0  
  22241937.860  116882367.582         48.250 0  
  22241939.820   91077181.570         43.250 0  
 17 04 08 04 13 54.0000000  0  6G02G05G12G16G25G29                  
  20789085.080  109247408.766         40.000 0  

  22948819.400  120597090.219         46.000 0  
  22948819.780   93971751.074         47.250 0  
  20636172.080  108443799.199         58.250 0  
  20636169.640   84501652.898         51.750 0  
  20720862.700  108764352.852         36.500 0  

  20722795.160  108899150.859         46.500 0  
  20722792.160   84856479.949         42.250 0  
  22241434.380  116879721.297         48.500 0  
  22241436.440   91075119.508         42.750 0  
 17 04 08 04 13 55.0000000  0  6G02G05G12G16G25G29                  
  20789244.880  109248248.324         40.000 0  

  22948223.040  120593956.438         45.500 0  
  22948223.460   93969309.160         47.250 0  
  20636535.120  108445707.445         58.500 0  
  20636532.700   84503139.840         52.000 0  
  20721226.380  108765261.105         36.250 0  

  20722599.880  108898123.867         46.500 0  
  20722597.480   84855679.695         42.500 0  
  22240930.820  116877075.520         48.750 0  
  22240933.020   91073057.863         42.750 0  
 17 04 08 04 13 56.0000000  0  6G02G05G12G16G25G29                  
  20789404.440  109249089.809         39.750 0  

  22947626.920  120590824.461         45.250 0  
  22947627.680   93966868.645         47.250 0  
  20636898.680  108447617.699         58.500 0  
  20636896.060   84504628.344         52.000 0  
  20721589.880  108766171.359         36.250 0  

  20722404.760  108897098.953         46.000 0  
  20722402.280   84854881.062         42.250 0  
  22240427.820  116874431.426         49.000 0  
  22240429.760   91070997.531         42.750 0  
 17 04 08 04 13 57.0000000  0  6G02G05G12G16G25G29                  
  20789563.880  109249929.609         39.750 0  

  22947030.620  120587690.656         45.500 0  
  22947031.700   93964426.723         47.500 0  
  20637261.840  108449526.363         58.500 0  
  20637259.040   84506115.605         52.000 0  
  20721953.340  108767080.023         36.500 0  

  20722209.580  108896072.512         45.500 0  
  20722206.680   84854081.230         42.250 0  
  22239924.380  116871785.410         49.250 0  
  22239925.960   91068935.688         42.750 0  
 17 04 08 04 13 58.0000000  0  6G02G05G12G16G25G29                  
  20789724.180  109250774.246         39.500 0  

  22946434.860  120584561.562         45.500 0  
  22946436.220   93961988.461         47.750 0  
  20637626.120  108451439.961         58.250 0  
  20637623.500   84507606.719         52.000 0  
  20722317.360  108767993.621         36.500 0  

  20722015.240  108895051.055         45.500 0  
  20722011.780   84853285.285         42.250 0  
  22239421.980  116869143.988         49.000 0  
  22239423.600   91066877.434         42.750 0  
 17 04 08 04 13 59.0000000  0  6G02G05G12G16G25G29                  
  20789884.260  109251615.129         39.500 0  

  22945838.760  120581428.594         45.000 0  
  22945839.740   93959547.184         47.750 0  
  20637989.680  108453349.902         58.250 0  
  20637986.860   84509094.977         51.750 0  
  20722680.280  108768903.574         36.500 0  

  20721820.120  108894026.012         45.500 0  
  20721816.280   84852486.543         42.000 0  
  22238918.660  116866498.566         48.750 0  
  22238920.360   91064816.051         43.000 0  
 17 04 08 04 14  0.0000000  0  6G02G05G12G16G25G29                  
  20790044.600  109252457.965         39.500 0  

  22945242.700  120578297.434         45.250 0  
  22945243.840   93957107.324         47.750 0  
  20638353.540  108455261.875         58.250 0  
  20638350.680   84510584.816         51.750 0  
  20723044.160  108769815.543         36.750 0  

  20721625.540  108893003.047         45.500 0  
  20721622.480   84851689.418         41.750 0  
  22238415.760  116863854.840         49.000 0  
  22238417.580   91062756.004         43.500 0  
 17 04 08 04 14  1.0000000  0  6G02G05G12G16G25G29                  
  20790204.560  109253298.691         39.750 1  

  22944646.500  120575164.047         45.500 0  
  22944647.440   93954665.715         47.750 0  
  20638716.900  108457171.840         58.250 0  
  20638713.980   84512073.098         51.750 0  
  20723407.120  108770725.516         36.750 0  

  20721430.240  108891978.133         45.500 0  
  20721427.360   84850890.777         41.750 0  
  22237912.160  116861208.762         49.000 0  
  22237914.280   91060694.121         43.250 0  
 17 04 08 04 14  2.0000000  0  6G02G05G12G16G25G29                  
  20790365.000  109254138.363         40.250 0  

  22944049.980  120572029.480         45.500 0  
  22944050.920   93952223.184         48.000 0  
  20639080.120  108459080.840         58.500 0  
  20639077.160   84513560.625         51.750 0  
  20723770.800  108771634.504         36.750 0  

  20721234.880  108890952.316         45.500 0  
  20721231.680   84850091.438         42.000 0  
  22237408.460  116858561.383         48.750 0  
  22237410.160   91058631.219         43.250 0  
 17 04 08 04 14  3.0000000  0  6G02G05G12G16G25G29                  
  20790525.200  109254979.098         40.250 0  

  22943453.540  120568895.812         45.500 0  
  22943454.820   93949781.371         48.000 0  
  20639443.500  108460990.973         58.500 0  
  20639440.540   84515049.031         51.500 0  
  20724134.880  108772544.656         36.500 0  

  20721039.620  108889927.684         45.750 0  
  20721037.180   84849293.008         42.250 0  
  22236904.980  116855914.797         49.000 0  
  22236906.580   91056568.945         43.500 0  
 17 04 08 04 14  4.0000000  0  6G02G05G12G16G25G29                  
  20790686.040  109255824.391         40.750 0  

  22942857.980  120565766.637         45.250 0  
  22942859.160   93947343.039         48.000 0  
  20639807.640  108462905.793         58.250 0  
  20639805.020   84516541.094         51.750 0  
  20724499.160  108773459.465         36.750 0  

  20720845.520  108888907.801         45.750 0  
  20720843.280   84848498.297         42.250 0  
  22236402.140  116853272.574         49.000 0  
  22236403.440   91054510.059         44.000 0  
 17 04 08 04 14  5.0000000  0  6G02G05G12G16G25G29                  
  20790846.760  109256668.070         41.000 0  

  22942262.400  120562635.668         45.500 0  
  22942263.180   93944903.336         47.500 0  
  20640171.520  108464819.066         58.250 0  
  20640169.220   84518031.953         51.500 0  
  20724863.000  108774372.734         37.000 0  

  20720651.140  108887886.438         45.750 0  
  20720649.460   84847702.422         42.250 0  
  22235899.100  116850628.461         49.250 0  
  22235900.000   91052449.703         44.000 0  
 17 04 08 04 14  6.0000000  0  6G02G05G12G16G25G29                  
  20791007.300  109257509.059         40.750 0  

  22941666.440  120559501.914         46.000 0  
  22941666.840   93942461.434         47.250 0  
  20640534.980  108466729.754         58.500 0  
  20640533.020   84519520.789         51.250 0  
  20725226.140  108775283.430         37.000 0  

  20720456.400  108886862.543         46.000 0  
  20720454.480   84846904.578         42.500 0  
  22235395.600  116847981.422         49.500 0  
  22235396.260   91050387.070         44.000 0  
 17 04 08 04 14  7.0000000  0  6G02G05G12G16G25G29                  
  20791167.760  109258350.047         40.250 0  

  22941070.620  120556368.016         46.500 0  
  22941070.620   93940019.430         47.250 0  
  20640898.900  108468640.527         58.500 0  
  20640896.500   84521009.699         51.250 0  
  20725589.820  108776194.219         36.750 0  

  20720261.600  108885838.777         46.250 0  
  20720259.680   84846106.832         42.500 0  
  22234892.320  116845334.141         49.750 0  
  22234892.320   91048324.250         44.250 0  
 17 04 08 04 14  8.0000000  0  6G02G05G12G16G25G29                  
  20791328.160  109259191.902         40.000 0  

  22940474.960  120553234.855         46.750 0  
  22940474.540   93937578.000         47.250 0  
  20641262.740  108470552.262         58.500 0  
  20641260.360   84522499.355         51.500 0  
  20725953.800  108777105.945         36.500 0  

  20720067.260  108884816.043         46.500 0  
  20720065.280   84845309.891         42.500 0  
  22234388.860  116842687.480         50.000 0  
  22234388.940   91046261.906         44.250 0  
 17 04 08 04 14  9.0000000  0  6G02G05G12G16G25G29                  
  20791488.800  109260033.102         40.500 0  

  22939879.020  120550100.922         47.250 0  
  22939878.120   93935135.973         47.000 0  
  20641626.520  108472463.449         58.750 0  
  20641623.900   84523988.586         51.750 0  
  20726318.320  108778017.121         36.500 0  

  20719872.960  108883792.809         46.000 0  
  20719870.900   84844512.562         42.500 0  
  22233884.860  116840039.930         49.750 0  
  22233885.860   91044198.871         44.000 0  
 17 04 08 04 14 10.0000000  0  6G02G05G12G16G25G29                  
  20791650.180  109260880.918         40.250 0  

  22939283.860  120546973.453         47.000 0  
  22939282.680   93932698.977         47.000 0  
  20641991.540  108474381.316         59.000 0  
  20641988.800   84525483.020         52.000 0  
  20726683.160  108778934.988         36.500 0  

  20719679.780  108882776.340         45.750 0  
  20719677.040   84843720.488         42.250 0  
  22233381.900  116837398.730         50.000 0  
  22233383.380   91042140.789         44.000 0  
 17 04 08 04 14 11.0000000  0  6G02G05G12G16G25G29                  
  20791811.160  109261727.496         40.750 0  

  22938688.900  120543844.625         47.250 0  
  22938687.340   93930260.918         46.750 0  
  20642356.320  108476298.047         59.250 0  
  20642353.320   84526976.570         51.750 0  
  20727047.280  108779851.734         36.750 0  

  20719486.200  108881758.773         45.750 0  
  20719483.160   84842927.582         42.250 0  
  22232878.640  116834756.047         49.750 0  
  22232880.100   91040081.551         44.250 0  
 17 04 08 04 14 12.0000000  0  6G02G05G12G16G25G29                  
  20791972.360  109262573.109         40.750 0  

  22938093.500  120540714.703         47.000 0  
  22938091.860   93927822.016         47.000 0  
  20642720.840  108478213.906         59.250 0  
  20642718.020   84528469.438         51.500 0  
  20727410.980  108780767.590         37.000 0  

  20719292.420  108880740.383         45.750 0  
  20719289.000   84842134.027         42.500 0  
  22232375.600  116832112.156         49.750 0  
  22232376.680   91038021.363         44.000 0  
 17 04 08 04 14 13.0000000  0  6G02G05G12G16G25G29                  
  20792133.440  109263419.895         40.750 0  

  22937498.180  120537585.859         47.000 0  
  22937496.540   93925383.941         47.000 0  
  20643085.580  108480131.043         59.000 0  
  20643082.860   84529963.305         51.500 0  
  20727776.440  108781684.723         36.750 0  

  20719098.460  108879723.344         46.000 0  
  20719095.380   84841341.523         42.500 0  
  22231872.320  116829469.207         50.000 0  
  22231874.000   91035961.910         44.000 0  
 17 04 08 04 14 14.0000000  0  6G02G05G12G16G25G29                  
  20792295.060  109264269.180         40.500 0  

  22936903.220  120534459.359         47.000 0  
  22936901.440   93922947.699         47.000 0  
  20643451.120  108482050.766         58.750 0  
  20643448.360   84531459.184         51.750 0  
  20728142.060  108782604.453         36.500 0  

  20718905.520  108878708.949         46.500 0  
  20718902.060   84840551.070         42.000 0  
  22231369.880  116826828.504         49.750 0  
  22231371.900   91033904.215         44.000 0  
 17 04 08 04 14 15.0000000  0  6G02G05G12G16G25G29                  
  20792456.320  109265117.191         40.250 0  

  22936307.920  120531331.469         47.250 0  
  22936306.200   93920510.367         47.000 0  
  20643816.200  108483969.309         58.500 0  
  20643813.440   84532954.152         51.500 0  
  20728506.900  108783522.988         36.750 0  

  20718712.020  108877693.434         46.500 0  
  20718709.040   84839759.766         41.500 0  
  22230867.400  116824186.301         50.000 0  
  22230869.300   91031845.355         44.000 0  
 17 04 08 04 14 16.0000000  0  6G02G05G12G16G25G29                  
  20792617.580  109265969.738         40.000 0  

  22935713.080  120528207.992         47.750 0  
  22935712.000   93918076.496         47.000 0  
  20644182.040  108485892.492         58.500 0  
  20644179.100   84534452.727         51.750 0  
  20728872.920  108784446.164         37.000 0  

  20718519.280  108876682.621         46.250 0  
  20718516.520   84838972.105         42.000 0  
  22230365.560  116821548.387         50.250 0  
  22230366.840   91029789.828         44.250 0  
 17 04 08 04 14 17.0000000  0  6G02G05G12G16G25G29                  
  20792779.340  109266823.840         40.000 0  

  22935118.920  120525085.922         47.500 0  
  22935117.780   93915643.703         46.750 0  
  20644548.300  108487817.301         58.500 0  
  20644545.340   84535952.574         51.250 0  
  20729239.240  108785370.988         37.250 0  

  20718327.040  108875673.496         46.500 0  
  20718324.320   84838185.777         41.750 0  
  22229863.440  116818911.754         50.000 0  
  22229865.040   91027735.312         44.000 0  
 17 04 08 04 14 18.0000000  0  6G02G05G12G16G25G29                  
  20792941.380  109267678.273         40.250 0  

  22934524.660  120521964.070         47.000 0  
  22934523.720   93913211.082         47.250 0  
  20644914.700  108489742.555         58.750 0  
  20644911.740   84537452.762         51.750 0  
  20729605.600  108786296.242         37.250 0  

  20718135.300  108874664.859         45.500 0  
  20718132.440   84837399.828         42.500 0  
  22229361.540  116816275.246         49.500 0  
  22229363.180   91025680.879         44.500 0  
 17 04 08 04 14 19.0000000  0  6G02G05G12G16G25G29                  
  20793103.240  109268527.457         40.250 0  

  22933929.420  120518836.824         46.500 0  
  22933928.960   93910774.266         47.250 0  
