     2.11           OBSERVATION DATA    G (GPS)             RINEX VERSION / TYPE
sbp2rinex                               20170408 053429 UTC PGM / RUN BY / DATE
                                                            MARKER NAME
                                                            OBSERVER / AGENCY
                    Piksi                                   REC # / TYPE / VERS
                                                            ANT # / TYPE
  -2259489.3769  -3519170.4224   4799600.3815               APPROX POSITION XYZ
         0.0000         0.0000         0.0000               ANTENNA: DELTA H/E/N
     6    C1    L1    S1   C2    L2    S2                   # / TYPES OF OBSERV
  2017    03    16    05    59   42.0000000     GPS         TIME OF FIRST OBS
                                                            END OF HEADER
 17 03 16 05 59 42.0000000  0  6G02G05G12G21G25G29                  
  20945246.380  110067994.988         36.000 1  

  22533187.500  118412695.234         55.500 0  
  22533185.320   92269622.852         43.500 0  
  20861084.000  109625623.676         58.000 0  
  20861083.160   85422535.379         48.750 0  
  20819762.900  109731278.957         32.250 0  

  20627486.840  108398158.938         51.250 0  
  20627486.460   84466059.227         46.750 0  
  21908797.820  115131515.270         52.500 0  
  21908795.080   89712793.953         43.250 0  
 17 03 16 05 59 43.0000000  0  6G02G05G12G21G25G29                  
  20945471.620  110069180.188         36.500 0  

  22532641.800  118409828.016         55.500 0  
  22532639.800   92267388.660         43.500 0  
  20861504.300  109627831.273         58.250 0  
  20861503.100   85424255.578         49.250 0  
  20820183.720  109734486.555         32.250 0  

  20627365.180  108397519.828         51.000 0  
  20627364.500   84465561.211         46.500 0  
  21908321.920  115129014.980         52.500 0  
  21908319.260   89710845.660         43.250 0  
 17 03 16 05 59 44.0000000  0  6G02G05G12G21G25G29                  
  20945696.700  110070364.793         35.250 0  

  22532096.060  118406960.215         55.500 0  
  22532094.340   92265154.000         43.500 0  
  20861924.440  109630038.406         58.750 0  
  20861923.180   85425975.414         49.250 0  
  20820603.520  109737693.699         32.250 0  

  20627243.480  108396880.367         51.000 0  
  20627242.700   84465062.926         46.500 0  
  21907846.140  115126513.934         52.750 0  
  21907843.380   89708896.777         43.000 0  
 17 03 16 05 59 45.0000000  0  6G02G05G12G21G25G29                  
  20945922.100  110071548.812         34.250 0  

  22531550.280  118404091.801         55.250 0  
  22531548.260   92262918.859         43.500 0  
  20862344.300  109632245.051         58.500 0  
  20862343.180   85427694.863         49.250 0  
  20821023.740  109740900.336         32.000 0  

  20627121.840  108396240.527         51.250 0  
  20627121.040   84464564.336         46.250 0  
  21907370.200  115124012.094         52.750 0  
  21907367.840   89706947.297         42.750 0  
 17 03 16 05 59 46.0000000  0  6G02G05G12G21G25G29                  
  20946147.380  110072734.152         34.250 0  

  22531004.680  118401224.695         55.000 0  
  22531002.340   92260684.754         43.250 0  
  20862764.160  109634453.117         58.500 0  
  20862763.400   85429415.426         49.250 0  
  20821444.080  109744108.391         32.000 0  

  20627000.400  108395602.211         51.500 0  
  20626999.540   84464066.941         46.000 0  
  21906894.360  115121511.383         52.750 0  
  21906892.320   89704998.691         42.750 0  
 17 03 16 05 59 47.0000000  0  6G02G05G12G21G25G29                  
  20946372.820  110073916.852         34.250 0  

  22530458.820  118398354.941         55.250 0  
  22530455.880   92258448.582         43.000 0  
  20863183.360  109636658.672         58.250 0  
  20863182.620   85431134.031         48.750 0  
  20821862.600  109747313.965         31.750 0  

  20626878.560  108394961.484         52.000 0  
  20626877.580   84463567.676         46.000 0  
  21906417.860  115119007.855         52.500 0  
  21906416.020   89703047.875         43.000 0  
 17 03 16 05 59 48.0000000  0  6G02G05G12G21G25G29                  
  20946598.280  110075100.562         34.750 0  

  22529912.940  118395486.180         55.250 0  
  22529909.560   92256213.176         42.750 0  
  20863602.700  109638865.344         58.000 0  
  20863601.980   85432853.504         48.500 0  
  20822281.140  109750520.637         31.750 0  

  20626756.900  108394321.965         52.250 0  
  20626755.860   84463069.340         45.750 0  
  21905941.420  115116505.129         52.500 0  
  21905939.940   89701097.695         43.000 0  
 17 03 16 05 59 49.0000000  0  6G02G05G12G21G25G29                  
  20946823.560  110076283.145         35.750 0  

  22529367.040  118392616.312         55.250 0  
  22529363.400   92253976.910         42.500 0  
  20864021.860  109641071.023         57.750 0  
  20864021.120   85434572.211         48.500 0  
  20822700.240  109753726.309         31.500 0  

  20626635.240  108393681.582         52.250 0  
  20626633.980   84462570.340         45.500 0  
  21905465.120  115114001.113         52.500 0  
  21905463.180   89699146.512         43.000 0  
 17 03 16 05 59 50.0000000  0  6G02G05G12G21G25G29                  
  20947049.740  110077471.059         36.500 0  

  22528821.940  118389751.762         55.500 0  
  22528817.580   92251744.777         42.500 0  
  20864442.540  109643282.141         57.500 0  
  20864441.360   85436295.156         48.500 0  
  20823120.460  109756937.418         31.500 0  

  20626514.620  108393046.734         52.250 0  
  20626512.980   84462075.637         45.500 0  
  21904989.660  115111502.246         52.500 0  
  21904987.580   89697199.336         43.000 0  
 17 03 16 05 59 51.0000000  0  6G02G05G12G21G25G29                  
  20947274.840  110078653.727         37.500 0  

  22528275.900  118386881.914         55.500 0  
  22528271.160   92249508.535         42.500 0  
  20864862.060  109645488.074         57.250 0  
  20864860.420   85438014.043         48.000 0  
  20823539.940  109760143.363         31.250 0  

  20626392.800  108392406.820         52.000 0  
  20626391.120   84461577.004         45.500 0  
  21904513.260  115108997.906         53.000 0  
  21904511.460   89695247.887         43.000 0  
 17 03 16 05 59 52.0000000  0  6G02G05G12G21G25G29                  
  20947500.800  110079840.379         38.000 0  

  22527730.600  118384016.074         55.500 0  
  22527725.500   92247275.391         42.250 0  
  20865282.860  109647698.137         57.500 0  
  20865280.500   85439736.160         47.750 0  
  20823960.900  109763353.422         31.000 0  

  20626271.880  108391771.160         52.000 0  
  20626269.740   84461081.680         45.500 0  
  21904037.600  115106497.398         53.500 0  
  21904035.660   89693299.441         43.000 0  
 17 03 16 05 59 53.0000000  0  6G02G05G12G21G25G29                  
  20947726.720  110081028.656         37.750 0  

  22527185.600  118381151.840         55.500 0  
  22527180.540   92245043.520         42.250 0  
  20865704.020  109649909.910         57.750 0  
  20865701.160   85441459.621         47.750 0  
  20824381.520  109766565.184         31.250 0  

  20626151.200  108391137.320         52.000 0  
  20626148.800   84460587.770         45.250 0  
  21903562.220  115103998.320         54.000 0  
  21903559.860   89691352.102         42.750 0  
 17 03 16 05 59 54.0000000  0  6G02G05G12G21G25G29                  
  20947953.260  110082218.832         37.500 0  

  22526640.960  118378289.504         55.500 0  
  22526635.740   92242813.117         42.250 0  
  20866125.480  109652123.684         57.750 0  
  20866122.580   85443184.641         47.750 0  
  20824803.660  109769778.980         31.250 0  

  20626031.040  108390505.602         52.250 0  
  20626028.720   84460095.523         45.500 0  
  21903087.040  115101500.957         54.000 0  
  21903084.820   89689406.094         43.000 0  
 17 03 16 05 59 55.0000000  0  6G02G05G12G21G25G29                  
  20948180.360  110083413.672         38.000 0  

  22526097.160  118375431.824         55.250 0  
  22526091.340   92240586.355         42.250 0  
  20866547.880  109654342.242         58.000 0  
  20866544.940   85444913.379         47.250 0  
  20825225.940  109772997.516         31.500 0  

  20625911.960  108389878.781         52.000 0  
  20625909.840   84459607.078         45.750 0  
  21902612.620  115099008.078         54.000 0  
  21902610.680   89687463.582         43.000 0  
 17 03 16 05 59 56.0000000  0  6G02G05G12G21G25G29                  
  20948407.160  110084606.172         38.750 0  

  22525552.840  118372571.785         55.250 0  
  22525546.940   92238357.738         42.000 0  
  20866969.780  109656558.539         58.250 0  
  20866966.940   85446640.355         47.250 0  
  20825647.700  109776213.816         31.750 0  

  20625792.480  108389249.828         52.000 0  
  20625790.420   84459116.984         45.750 0  
  21902137.820  115096512.672         53.750 0  
  21902136.160   89685519.113         43.000 0  
 17 03 16 05 59 57.0000000  0  6G02G05G12G21G25G29                  
  20948634.040  110085796.887         39.250 0  

  22525008.180  118369709.980         55.250 0  
  22525002.780   92236127.750         42.000 0  
  20867391.340  109658773.176         58.250 0  
  20867388.860   85448366.051         47.500 0  
  20826069.480  109779428.441         31.750 0  

  20625672.540  108388619.324         51.750 0  
  20625670.760   84458625.672         45.750 0  
  21901662.620  115094015.332         53.750 0  
  21901661.140   89683573.113         43.500 0  
 17 03 16 05 59 58.0000000  0  6G02G05G12G21G25G29                  
  20948862.120  110086995.363         38.750 0  

  22524464.980  118366855.914         55.500 0  
  22524459.300   92233903.797         41.750 0  
  20867814.760  109660995.695         58.500 0  
  20867812.300   85450097.879         47.750 0  
  20826493.140  109782650.965         32.000 0  

  20625554.140  108387996.789         51.750 0  
  20625552.640   84458140.574         46.000 0  
  21901188.860  115091525.551         53.750 0  
  21901187.060   89681633.023         43.500 0  
 17 03 16 05 59 59.0000000  0  6G02G05G12G21G25G29                  
  20949090.220  110088190.074         38.250 0  

  22523921.080  118363998.070         55.250 0  
  22523915.540   92231676.887         41.250 0  
  20868237.520  109663214.555         58.500 0  
  20868234.860   85451826.848         48.000 0  
  20826916.280  109785869.812         32.000 0  

  20625435.220  108387370.695         52.250 0  
  20625433.820   84457652.703         46.250 0  
  21900714.240  115089031.801         53.500 0  
  21900712.460   89679689.836         43.500 0  
 17 03 16 06 00  0.0000000  0  6G02G05G12G21G25G29                  
  20949317.420  110089383.312         37.500 0  

  22523377.020  118361138.750         55.250 0  
  22523371.700   92229448.844         41.250 0  
  20868659.960  109665432.051         58.750 0  
  20868657.140   85453554.766         48.000 0  
  20827339.560  109789087.320         32.250 0  

  20625316.020  108386743.367         52.500 0  
  20625314.460   84457163.867         46.500 0  
  21900239.220  115086536.414         53.500 0  
  21900237.840   89677745.379         43.750 0  
 17 03 16 06 00  1.0000000  0  6G02G05G12G21G25G29                  
  20949543.980  110090575.578         36.750 0  

  22522833.000  118358278.434         55.500 0  
  22522827.640   92227220.004         41.500 0  
  20869081.860  109667648.668         58.750 0  
  20869079.460   85455281.996         48.500 0  
  20827761.240  109792303.930         32.000 0  

  20625196.480  108386115.270         52.500 0  
  20625194.860   84456674.438         46.500 0  
  21899764.140  115084039.852         53.500 0  
  21899762.900   89675799.996         43.500 0  
 17 03 16 06 00  2.0000000  0  6G02G05G12G21G25G29                  
  20949771.520  110091772.586         36.750 0  

  22522289.740  118355422.840         55.500 0  
  22522283.500   92224994.867         41.250 0  
  20869504.620  109669870.117         58.750 0  
  20869502.540   85457012.988         48.500 0  
  20828183.220  109795525.375         32.250 0  

  20625077.860  108385492.137         52.250 0  
  20625076.460   84456188.871         46.250 0  
  21899289.800  115081547.836         53.500 0  
  21899288.840   89673858.152         43.750 0  
 17 03 16 06 00  3.0000000  0  6G02G05G12G21G25G29                  
  20949998.220  110092964.754         37.750 0  

  22521745.540  118352562.426         55.250 0  
  22521739.300   92222765.969         41.000 0  
  20869926.220  109672086.863         58.750 0  
  20869924.540   85458740.312         48.750 0  
  20828604.820  109798742.121         32.000 0  

  20624958.380  108384864.395         51.750 0  
  20624957.280   84455699.715         46.250 0  
  21898814.500  115079050.816         53.500 0  
  21898814.000   89671912.422         43.750 0  
 17 03 16 06 00  4.0000000  0  6G02G05G12G21G25G29                  
  20950225.000  110094157.223         38.500 0  

  22521201.200  118349702.289         55.250 0  
  22521195.140   92220537.273         41.000 0  
  20870347.760  109674303.996         58.250 0  
  20870346.500   85460467.945         48.750 0  
  20829026.700  109801959.258         31.750 0  

  20624838.800  108384237.168         51.250 0  
  20624838.000   84455210.957         46.250 0  
  21898339.460  115076553.895         53.500 0  
  21898338.620   89669966.758         44.000 0  
 17 03 16 06 00  5.0000000  0  6G02G05G12G21G25G29                  
  20950451.860  110095348.289         39.250 0  

  22520656.640  118346840.742         55.250 0  
  22520650.540   92218307.496         41.250 0  
  20870768.860  109676519.836         58.000 0  
  20870768.440   85462194.566         49.000 0  
  20829448.200  109805175.090         31.500 0  

  20624719.100  108383608.754         51.250 0  
  20624718.420   84454721.289         46.500 0  
  21897864.080  115074055.387         53.250 0  
  21897863.480   89668019.871         44.000 0  
 17 03 16 06 00  6.0000000  0  6G02G05G12G21G25G29                  
  20950678.860  110096538.949         40.250 0  

  22520112.000  118343978.785         55.250 0  
  22520105.960   92216077.379         41.000 0  
  20871189.760  109678735.371         57.750 0  
  20871190.120   85463920.938         48.750 0  
  20829869.040  109808390.625         31.250 0  

  20624599.180  108382980.145         51.000 0  
  20624598.800   84454231.453         46.500 0  
  21897388.520  115071556.281         53.000 0  
  21897387.780   89666072.504         43.750 0  
 17 03 16 06 00  7.0000000  0  6G02G05G12G21G25G29                  
  20950905.920  110097732.547         41.000 0  

  22519567.840  118341119.742         55.250 0  
  22519561.700   92213849.547         41.000 0  
  20871611.280  109680953.945         57.500 0  
  20871612.220   85465649.691         48.750 0  
  20830289.940  109811609.203         30.750 0  

  20624479.960  108382354.695         51.000 0  
  20624479.560   84453744.078         46.500 0  
  21896913.200  115069059.926         52.750 0  
  21896912.680   89664127.297         43.750 0  
 17 03 16 06 00  8.0000000  0  6G02G05G12G21G25G29                  
  20951132.840  110098923.246         41.250 0  

  22519023.340  118338257.805         55.500 0  
  22519017.480   92211619.473         41.500 0  
  20872032.420  109683169.734         57.000 0  
  20872033.780   85467376.266         48.750 0  
  20830710.100  109814824.988         30.500 0  

  20624360.480  108381726.574         51.000 0  
  20624360.060   84453254.629         46.250 0  
  21896437.300  115066560.484         52.750 0  
  21896437.200   89662179.668         43.500 0  
 17 03 16 06 00  9.0000000  0  5G02G05G12G25G29                     
  20951360.080  110100114.934         40.750 0  

  22518478.860  118335396.852         55.750 0  
  22518473.440   92209390.152         41.750 0  
  20872454.000  109685386.629         56.750 0  
  20872455.260   85469103.691         48.750 0  
  20624241.100  108381099.672         51.000 0  
  20624240.800   84452766.133         46.000 0  
  21895961.740  115064061.855         53.000 0  
  21895961.580   89660232.680         43.500 0  
 17 03 16 06 00 10.0000000  0  5G02G05G12G25G29                     
  20951588.040  110101311.656         40.250 0  

  22517935.320  118332540.934         55.500 0  
  22517929.380   92207164.742         41.750 0  
  20872876.760  109687608.656         57.000 0  
  20872877.660   85470835.133         48.500 0  
  20624122.700  108380478.031         51.000 0  
  20624122.620   84452281.719         46.000 0  
  21895487.120  115061568.070         53.000 0  
  21895486.980   89658289.473         43.500 0  
 17 03 16 06 00 11.0000000  0  5G02G05G12G25G29                     
  20951815.200  110102508.090         39.750 0  

  22517391.760  118329684.711         55.750 0  
  22517385.860   92204939.121         42.000 0  
  20873299.700  109689830.492         57.250 0  
  20873300.140   85472566.426         48.750 0  
  20624004.260  108379856.309         51.000 0  
  20624003.940   84451797.262         46.250 0  
  21895012.620  115059073.801         52.750 0  
  21895011.980   89656345.887         43.500 0  
 17 03 16 06 00 12.0000000  0  5G02G05G12G25G29                     
  20952042.060  110103699.492         39.500 0  

  22516847.360  118326823.445         55.750 0  
  22516841.820   92202709.551         42.000 0  
  20873721.820  109692047.395         57.000 0  
  20873721.480   85474293.871         48.500 0  
  20623884.660  108379229.770         50.750 0  
  20623884.180   84451309.047         46.500 0  
  21894536.980  115056574.316         53.000 0  
  21894536.220   89654398.223         43.500 0  
 17 03 16 06 00 13.0000000  0  5G02G05G12G25G29                     
  20952269.200  110104893.336         39.750 1  

  22516303.460  118323964.617         55.750 0  
  22516297.980   92200481.887         41.750 0  
  20874144.380  109694266.844         57.250 0  
  20874143.440   85476023.309         48.250 0  
  20623765.520  108378605.898         50.250 0  
  20623765.120   84450822.898         46.250 0  
  21894061.800  115054077.086         53.250 0  
  21894060.880   89652452.324         43.750 0  
 17 03 16 06 00 14.0000000  0  6G02G05G12G21G25G29                  
  20952496.860  110106090.008         39.000 0  

  22515760.020  118321108.613         56.250 0  
  22515754.440   92198256.402         41.750 0  
  20874567.960  109696489.223         57.250 0  
  20874565.820   85477755.027         48.000 0  
  20833246.460  109480153.465         31.250 0  

  20623647.080  108377985.078         50.250 0  
  20623646.900   84450339.133         46.250 0  
  21893587.160  115051582.500         53.250 0  
  21893586.300   89650508.492         44.000 0  
 17 03 16 06 00 15.0000000  0  6G02G05G12G21G25G29                  
  20952724.880  110107288.414         37.750 0  

  22515217.040  118318254.344         56.000 0  
  22515210.800   92196032.297         41.750 0  
  20874992.080  109698713.445         57.500 0  
  20874988.720   85479488.184         47.750 0  
  20833670.440  109483377.703         31.250 0  

  20623529.040  108377366.211         50.250 0  
  20623529.100   84449856.891         46.250 0  
  21893112.860  115049089.465         53.250 0  
  21893112.240   89648565.859         44.250 0  
 17 03 16 06 00 16.0000000  0  6G02G05G12G21G25G29                  
  20952952.600  110108486.598         37.000 0  

  22514673.920  118315399.840         56.250 0  
  22514668.200   92193808.004         42.000 0  
  20875415.920  109700937.555         57.750 0  
  20875412.120   85481221.250         47.750 0  
  20834093.860  109486601.781         31.500 0  

  20623410.920  108376747.352         50.250 0  
  20623411.180   84449374.660         46.250 0  
  21892638.080  115046596.035         53.250 0  
  21892638.000   89646622.918         44.000 0  
 17 03 16 06 00 17.0000000  0  6G02G05G12G21G25G29                  
  20953181.020  110109688.590         37.000 0  

  22514131.420  118312549.137         56.250 0  
  22514125.760   92191586.672         42.500 0  
  20875840.120  109703165.566         58.000 0  
  20875836.240   85482957.367         47.750 0  
  20834518.900  109489829.828         31.500 0  

  20623293.960  108376132.508         50.000 0  
  20623294.260   84448895.551         46.250 0  
  21892164.080  115044106.211         53.250 0  
  21892164.100   89644682.805         44.000 0  
 17 03 16 06 00 18.0000000  0  6G02G05G12G21G25G29                  
  20953408.840  110110887.746         37.250 0  

  22513588.360  118309695.594         56.250 0  
  22513583.100   92189363.125         42.750 0  
  20876263.680  109705390.852         58.000 0  
  20876259.680   85484691.352         47.500 0  
  20834943.340  109493055.086         31.500 0  

  20623176.300  108375515.047         50.250 0  
  20623176.600   84448414.406         46.000 0  
  21891689.660  115041613.371         53.000 0  
  21891689.520   89642740.316         44.000 0  
 17 03 16 06 00 19.0000000  0  6G02G05G12G21G25G29                  
  20953636.880  110112087.242         35.750 0  

  22513045.320  118306842.371         56.000 0  
  22513040.720   92187139.828         42.750 0  
  20876687.300  109707616.566         58.250 0  
  20876683.220   85486425.676         47.500 0  
  20835367.000  109496280.820         31.500 0  

  20623058.980  108374898.148         50.000 0  
  20623058.820   84447933.691         46.000 0  
  21891215.200  115039120.668         53.250 0  
  21891214.820   89640797.949         43.750 0  
 17 03 16 06 00 20.0000000  0  6G02G05G12G21G25G29                  
  20953866.080  110113292.180         35.000 0  

  22512503.280  118303994.609         56.250 0  
  22512498.700   92184920.777         42.500 0  
  20877111.860  109709847.848         58.500 0  
  20877108.360   85488164.340         47.750 0  
  20835791.500  109499512.078         31.250 0  

  20622942.620  108374286.918         50.000 0  
  20622942.560   84447457.410         45.500 0  
  21890741.740  115036633.242         53.000 0  
  21890741.080   89638859.691         43.750 0  
 17 03 16 06 00 21.0000000  0  6G02G05G12G21G25G29                  
  20954094.440  110114494.574         35.750 0  

  22511960.780  118301144.301         56.000 0  
  22511956.260   92182699.746         42.500 0  
  20877535.880  109712076.695         58.250 0  
  20877532.720   85489901.098         48.250 0  
  20836215.920  109502740.938         31.500 0  

  20622825.720  108373673.383         49.750 0  
  20622825.500   84446979.320         45.250 0  
  21890267.740  115034143.098         52.750 0  
  21890266.980   89636919.312         43.750 0  
 17 03 16 06 00 22.0000000  0  6G02G05G12G21G25G29                  
  20954321.700  110115691.754         36.500 0  

  22511417.640  118298288.750         55.750 0  
  22511413.460   92180474.648         42.750 0  
  20877958.820  109714300.402         57.750 0  
  20877956.160   85491633.859         48.250 0  
  20836637.760  109505964.637         31.000 0  

  20622707.780  108373054.820         50.000 0  
  20622707.860   84446497.320         45.500 0  
  21889793.060  115031647.523         52.750 0  
  21889792.240   89634974.703         43.750 0  
 17 03 16 06 00 23.0000000  0  6G02G05G12G21G25G29                  
  20954550.260  110116892.473         37.250 0  

  22510874.920  118295436.750         55.750 0  
  22510870.900   92178252.293         43.000 0  
  20878382.200  109716527.777         57.250 0  
  20878380.620   85493369.469         48.500 0  
  20837060.160  109509192.000         31.000 0  

  20622590.620  108372440.051         49.750 0  
  20622590.440   84446018.270         45.750 0  
  21889318.740  115029155.316         52.500 0  
  21889317.660   89633032.715         43.500 0  
 17 03 16 06 00 24.0000000  0  6G02G05G12G21G25G29                  
  20954779.100  110118094.133         37.000 0  

  22510332.560  118292585.680         56.000 0  
  22510328.280   92176030.676         43.250 0  
  20878805.700  109718756.188         57.250 0  
  20878805.040   85495105.883         48.500 0  
  20837484.340  109512420.426         31.250 0  

  20622473.800  108371826.414         50.000 0  
  20622474.120   84445540.105         45.500 0  
  21888844.680  115026663.855         52.250 0  
  21888843.420   89631091.309         43.500 0  
 17 03 16 06 00 25.0000000  0  6G02G05G12G21G25G29                  
  20955007.220  110119292.102         37.250 0  

  22509789.380  118289730.930         56.000 0  
  22509785.440   92173806.191         43.500 0  
  20879228.560  109720981.020         57.000 0  
  20879228.800   85496839.508         48.500 0  
  20837906.760  109515645.262         31.000 0  

  20622356.260  108371209.328         50.000 0  
  20622356.780   84445059.250         45.250 0  
  21888369.760  115024168.527         51.750 0  
  21888368.980   89629146.910         43.500 0  
 17 03 16 06 00 26.0000000  0  6G02G05G12G21G25G29                  
  20955235.360  110120490.133         37.750 0  

  22509246.040  118286876.238         56.250 0  
  22509242.740   92171581.754         44.000 0  
  20879651.520  109723206.035         56.500 0  
  20879652.820   85498573.273         48.750 0  
  20838329.340  109518870.277         31.000 0  

  20622238.740  108370592.523         50.250 0  
  20622239.260   84444578.613         45.000 0  
  21887895.000  115021673.082         51.750 0  
  21887894.560   89627202.391         43.500 0  
 17 03 16 06 00 27.0000000  0  6G02G05G12G21G25G29                  
  20955464.020  110121689.785         38.000 0  

  22508703.140  118284023.156         56.250 0  
  22508700.000   92169358.559         44.250 0  
  20880074.900  109725432.785         56.500 0  
  20880076.820   85500308.391         49.000 0  
  20838752.760  109522097.031         30.750 0  

  20622121.580  108369977.555         49.750 0  
  20622122.340   84444099.414         44.750 0  
  21887420.240  115019179.062         52.000 0  
  21887420.460   89625258.996         43.500 0  
 17 03 16 06 00 28.0000000  0  6G02G05G12G21G25G29                  
  20955692.540  110122889.457         38.250 0  

  22508160.320  118281170.094         56.250 0  
  22508157.260   92167135.395         44.500 0  
  20880498.280  109727659.660         56.250 0  
  20880500.600   85502043.605         49.000 0  
  20839177.840  109525323.887         30.250 0  

  20622004.620  108369362.824         49.500 0  
  20622005.440   84443620.395         44.750 0  
  21886945.620  115016684.883         52.000 0  
  21886946.060   89623315.480         43.750 0  
 17 03 16 06 00 29.0000000  0  6G02G05G12G21G25G29                  
  20955921.560  110124093.750         38.500 0  

  22507618.380  118278321.652         56.250 0  
  22507615.140   92164915.824         44.500 0  
  20880922.680  109729891.258         56.250 0  
  20880925.100   85503782.492         49.000 0  
  20839603.040  109528555.492         30.500 0  

  20621888.800  108368752.941         49.750 0  
  20621889.500   84443145.160         45.000 0  
  21886471.880  115014195.141         52.000 0  
  21886471.960   89621375.414         43.750 0  
 17 03 16 06 00 30.0000000  0  6G02G05G12G21G25G29                  
  20956151.400  110125300.957         38.500 0  

  22507076.820  118275476.125         56.250 0  
  22507073.720   92162698.531         44.500 0  
  20881347.980  109732125.875         56.000 0  
  20881350.380   85505523.742         49.000 0  
  20840027.720  109531790.109         30.500 0  

  20621773.680  108368146.203         50.000 0  
  20621773.920   84442672.367         45.000 0  
  21885998.680  115011708.129         52.250 0  
  21885998.040   89619437.477         43.750 0  
 17 03 16 06 00 31.0000000  0  6G02G05G12G21G25G29                  
  20956380.440  110126504.422         39.000 0  

  22506534.580  118272626.859         56.250 0  
  22506531.300   92160478.312         44.500 0  
  20881772.600  109734356.863         56.250 0  
  20881774.600   85507262.160         49.250 0  
  20840452.580  109535021.098         30.750 0  

  20621657.620  108367535.949         50.000 0  
  20621657.520   84442196.836         44.750 0  
  21885524.860  115009217.195         52.250 0  
  21885523.980   89617496.488         43.500 0  
 17 03 16 06 00 32.0000000  0  6G02G05G12G21G25G29                  
  20956610.060  110127711.055         39.500 0  

  22505993.000  118269780.762         56.250 0  
  22505989.640   92158260.566         44.750 0  
  20882198.160  109736591.117         56.250 0  
  20882199.460   85509003.121         49.000 0  
  20840877.660  109538255.336         31.250 0  

  20621542.160  108366929.094         50.250 0  
  20621542.160   84441723.953         44.500 0  
  21885051.580  115006729.246         52.500 0  
  21885050.160   89615557.820         43.500 0  
 17 03 16 06 00 33.0000000  0  6G02G05G12G21G25G29                  
  20956840.040  110128920.273         39.250 0  

  22505451.940  118266937.227         56.500 0  
  22505448.460   92156044.828         44.750 0  
  20882624.800  109738828.055         56.500 0  
  20882624.840   85510746.184         48.750 0  
  20841303.460  109541492.277         31.500 0  

  20621427.520  108366325.027         50.250 0  
  20621427.200   84441253.254         44.750 0  
  21884578.800  115004243.695         52.750 0  
  21884576.860   89613621.020         43.500 0  
 17 03 16 06 00 34.0000000  0  6G02G05G12G21G25G29                  
  20957069.880  110130132.727         39.250 0  

  22504911.060  118264096.922         56.750 0  
  22504908.140   92153831.594         45.000 0  
  20883052.000  109741068.328         57.000 0  
  20883051.080   85512491.848         48.500 0  
  20841730.560  109544732.543         31.750 0  

  20621313.320  108365724.430         50.000 0  
  20621312.880   84440785.238         44.750 0  
  21884106.440  115001761.199         53.000 0  
  21884104.140   89611686.598         43.500 0  
 17 03 16 06 00 35.0000000  0  6G02G05G12G21G25G29                  
  20957299.620  110131339.641         39.000 0  

  22504369.440  118261251.082         57.000 0  
  22504366.800   92151614.055         45.000 0  
  20883478.000  109743303.180         57.250 0  
  20883476.160   85514233.289         48.500 0  
  20842156.340  109547967.387         31.750 0  

  20621197.900  108365118.512         50.250 0  
  20621197.820   84440313.094         44.750 0  
  21883633.020  114999272.984         52.750 0  
  21883630.760   89609747.734         43.500 0  
 17 03 16 06 00 36.0000000  0  6G02G05G12G21G25G29                  
  20957529.020  110132548.812         39.000 0  

  22503828.400  118258407.488         57.000 0  
  22503825.640   92149398.262         45.250 0  
  20883904.400  109745540.379         57.250 0  
  20883901.820   85515976.555         48.500 0  
  20842583.020  109551204.609         31.500 0  

  20621083.340  108364515.062         50.250 0  
  20621083.100   84439842.867         44.750 0  
  21883159.980  114996786.836         52.750 0  
  21883158.080   89607810.465         43.250 0  
 17 03 16 06 00 37.0000000  0  6G02G05G12G21G25G29                  
  20957758.140  110133755.727         39.250 0  

  22503286.880  118255561.648         57.000 0  
  22503284.380   92147180.727         45.250 0  
  20884329.700  109747775.438         57.500 0  
  20884326.840   85517718.160         48.500 0  
  20843007.820  109554439.656         31.750 0  

  20620968.300  108363909.602         50.250 0  
  20620968.160   84439371.078         45.000 0  
  21882686.540  114994298.266         52.750 0  
  21882684.340   89605871.309         43.250 0  
 17 03 16 06 00 38.0000000  0  6G02G05G12G21G25G29                  
  20957988.660  110134967.219         39.000 0  

  22502746.240  118252720.375         57.000 0  
  22502744.040   92144966.742         45.250 0  
  20884755.640  109750015.168         57.500 0  
  20884753.080   85519463.402         48.000 0  
  20843433.780  109557679.363         31.500 0  

  20620853.820  108363308.926         50.250 0  
  20620854.060   84438903.008         45.000 0  
  21882213.780  114991814.070         52.750 0  
  21882210.880   89603935.566         43.250 0  
 17 03 16 06 00 39.0000000  0  6G02G05G12G21G25G29                  
  20958217.780  110136172.434         39.000 0  

  22502204.360  118249872.840         56.750 0  
  22502202.700   92142747.875         45.500 0  
  20885180.300  109752248.750         57.250 0  
  20885177.940   85521203.848         48.000 0  
  20843858.880  109560912.941         31.250 0  

  20620738.400  108362702.199         50.000 0  
  20620738.440   84438430.234         45.250 0  
  21881739.740  114989323.438         52.500 0  
  21881736.660   89601994.801         43.000 0  
 17 03 16 06 00 40.0000000  0  6G02G05G12G21G25G29                  
  20958447.880  110137381.297         38.250 0  

  22501663.060  118247028.926         56.750 0  
  22501661.120   92140531.836         45.750 0  
  20885605.600  109754486.055         57.000 0  
  20885603.540   85522947.199         48.000 0  
  20844283.880  109564150.273         31.000 0  

  20620623.880  108362099.336         50.250 0  
  20620623.700   84437960.461         45.250 0  
  21881266.260  114986836.242         52.500 0  
  21881263.400   89600056.723         42.750 0  
 17 03 16 06 00 41.0000000  0  6G02G05G12G21G25G29                  
  20958678.220  110138589.160         38.500 0  

  22501121.580  118244184.027         56.750 0  
  22501119.580   92138315.039         45.500 0  
  20886030.680  109756722.480         57.000 0  
  20886028.880   85524689.871         48.000 0  
  20844709.260  109567386.691         30.750 0  

  20620509.020  108361495.695         50.250 0  
  20620508.920   84437490.098         45.250 0  
  21880792.440  114984347.875         52.750 0  
  21880789.800   89598117.734         42.500 0  
 17 03 16 06 00 42.0000000  0  6G02G05G12G21G25G29                  
  20958908.260  110139797.461         39.000 0  

  22500580.080  118241339.547         57.000 0  
  22500578.320   92136098.551         45.750 0  
  20886455.860  109758959.434         56.750 0  
  20886454.780   85526432.941         48.000 0  
  20845134.720  109570623.652         30.500 0  

  20620394.600  108360892.703         50.000 0  
  20620394.160   84437020.215         45.500 0  
  21880319.000  114981859.742         53.000 0  
  21880316.560   89596178.914         42.500 0  
 17 03 16 06 00 43.0000000  0  6G02G05G12G21G25G29                  
  20959138.060  110141006.496         39.000 0  

  22500038.740  118238495.820         57.250 0  
  22500037.040   92133882.660         46.000 0  
  20886880.940  109761197.242         56.250 0  
  20886880.720   85528176.684         48.250 0  
  20845560.500  109573861.434         30.250 0  

  20620280.040  108360290.699         49.750 0  
  20620279.540   84436551.117         45.500 0  
  21879845.560  114979372.191         52.750 0  
  21879843.140   89594240.566         42.000 0  
 17 03 16 06 00 44.0000000  0  6G02G05G12G21G25G29                  
  20959367.760  110142213.234         39.250 0  

  22499497.140  118235649.793         57.250 0  
  22499495.100   92131664.973         46.250 0  
  20887305.640  109763432.852         56.000 0  
  20887306.020   85529918.707         48.500 0  
  20845985.020  109577097.070         30.250 0  

  20620164.900  108359686.613         50.000 0  
  20620164.500   84436080.398         45.750 0  
  21879371.820  114976882.148         52.500 0  
  21879369.340   89592300.270         42.000 0  
 17 03 16 06 00 45.0000000  0  6G02G05G12G21G25G29                  
  20959597.960  110143420.785         39.250 0  

  22498956.020  118232804.574         57.500 0  
  22498953.500   92129447.910         46.250 0  
  20887730.920  109765669.383         56.000 0  
  20887731.760   85531661.449         48.500 0  
  20846409.760  109580333.605         30.250 0  

  20620050.320  108359083.551         50.250 0  
  20620050.000   84435610.480         46.000 0  
  21878898.140  114974392.738         52.250 0  
  21878896.000   89590360.461         41.750 0  
 17 03 16 06 00 46.0000000  0  5G02G05G12G25G29                     
  20959828.200  110144630.715         38.750 0  

  22498415.280  118229961.738         57.250 0  
  22498412.600   92127232.711         46.250 0  
  20888156.820  109767908.395         55.500 0  
  20888158.040   85533406.121         48.750 0  
  20619936.200  108358483.105         50.500 0  
  20619935.960   84435142.586         46.250 0  
  21878424.800  114971905.527         52.000 0  
  21878422.880   89588422.359         41.750 0  
 17 03 16 06 00 47.0000000  0  5G02G05G12G25G29                     
  20960059.680  110145843.617         38.500 0  

  22497874.940  118227121.891         57.000 0  
  22497872.180   92125019.828         46.250 0  
  20888583.560  109770150.508         55.500 0  
  20888585.260   85535153.203         48.750 0  
  20619822.560  108357885.871         50.500 0  
  20619822.680   84434677.207         46.250 0  
  21877952.200  114969421.121         52.000 0  
  21877949.920   89586486.453         41.750 0  
 17 03 16 06 00 48.0000000  0  5G02G05G12G25G29                     
  20960290.880  110147057.422         38.500 0  

  22497334.620  118224282.926         57.000 0  
  22497331.820   92122807.656         46.000 0  
  20889010.540  109772393.598         55.500 0  
  20889012.580   85536901.051         48.750 0  
  20619709.200  108357289.730         50.250 0  
  20619709.040   84434212.676         46.250 0  
  21877479.380  114966937.414         51.750 0  
  21877477.420   89584551.105         42.000 0  
 17 03 16 06 00 49.0000000  0  5G02G05G12G25G29                     
  20960521.660  110148272.809         38.500 0  

  22496794.920  118221445.535         57.000 0  
  22496791.480   92120596.691         46.000 0  
  20889437.940  109774638.375         55.250 0  
  20889439.980   85538650.215         48.500 0  
  20619596.440  108356695.406         50.500 0  
  20619596.080   84433749.562         46.250 0  
  21877007.120  114964455.109         51.500 0  
  21877005.180   89582616.824         42.000 0  
 17 03 16 06 00 50.0000000  0  6G02G05G12G21G25G29                  
  20960753.120  110149489.465         38.250 0  

  22496255.240  118218609.430         57.000 0  
  22496252.000   92118386.738         46.000 0  
  20889865.920  109776884.539         55.500 0  
  20889867.600   85540400.465         48.500 0  
  20848544.920  109560538.738         30.750 0  

  20619483.680  108356102.582         50.750 0  
  20619483.480   84433287.613         46.500 0  
  21876534.820  114961973.902         51.500 0  
  21876532.660   89580683.414         42.250 0  
 17 03 16 06 00 51.0000000  0  6G02G05G12G21G25G29                  
  20960984.920  110150708.719         38.250 0  

  22495716.040  118215775.945         57.250 0  
  22495713.020   92116178.824         45.750 0  
  20890294.800  109779133.430         56.000 0  
  20890295.460   85542152.836         48.500 0  
  20848973.380  109563787.629         31.000 0  

  20619371.620  108355512.613         51.000 0  
  20619371.340   84432827.887         46.750 0  
  21876062.960  114959495.137         51.500 0  
  21876060.360   89578751.898         42.000 0  
 17 03 16 06 00 52.0000000  0  6G02G05G12G21G25G29                  
  20961216.680  110151924.758         38.500 0  

  22495176.000  118212939.199         57.250 0  
  22495173.400   92113968.363         45.500 0  
  20890722.800  109781379.168         56.000 0  
  20890722.800   85543902.754         48.750 0  
  20849401.700  109567033.359         31.250 0  

  20619258.780  108354919.609         51.250 0  
  20619258.300   84432365.797         47.000 0  
  21875590.720  114957012.934         51.750 0  
  21875587.400   89576817.719         42.000 0  
 17 03 16 06 00 53.0000000  0  6G02G05G12G21G25G29                  
  20961448.440  110153142.980         38.000 0  

  22494636.580  118210104.641         57.000 0  
  22494633.680   92111759.617         45.250 0  
  20891151.160  109783627.199         56.500 0  
  20891150.400   85545654.453         49.000 0  
  20849830.000  109570281.406         31.000 0  

  20619146.540  108354329.020         51.750 0  
  20619146.040   84431905.590         47.000 0  
  21875118.740  114954532.738         51.500 0  
  21875115.160   89574885.086         41.500 0  
 17 03 16 06 00 54.0000000  0  6G02G05G12G21G25G29                  
  20961678.980  110154357.250         38.250 0  

  22494096.440  118207266.145         56.500 0  
  22494093.080   92109547.785         45.250 0  
  20891578.440  109785871.391         57.000 0  
  20891576.880   85547403.172         49.000 0  
  20850257.720  109573525.598         31.250 0  

  20619033.540  108353734.703         52.000 0  
  20619032.860   84431442.484         47.000 0  
  21874645.920  114952048.414         51.500 0  
  21874642.740   89572949.246         41.250 0  
 17 03 16 06 00 55.0000000  0  6G02G05G12G21G25G29                  
  20961909.860  110155572.145         38.000 0  

  22493556.420  118204428.277         56.500 0  
  22493552.880   92107336.453         45.500 0  
  20892005.800  109788116.320         57.500 0  
  20892003.620   85549152.457         49.000 0  
  20850685.460  109576770.520         31.250 0  

  20618920.820  108353141.238         52.000 0  
  20618920.180   84430980.039         46.750 0  
  21874173.040  114949564.539         51.500 0  
  21874170.460   89571013.750         41.250 0  
 17 03 16 06 00 56.0000000  0  6G02G05G12G21G25G29                  
  20962140.240  110156786.000         37.750 0  

  22493016.000  118201589.363         56.500 0  
  22493012.980   92105124.305         45.500 0  
  20892432.880  109790360.305         57.500 0  
  20892430.100   85550901.016         49.000 0  
  20851112.920  109580014.484         31.250 0  

  20618808.060  108352546.953         52.000 0  
  20618807.220   84430516.957         46.250 0  
  21873699.880  114947079.438         51.500 0  
  21873698.040   89569077.297         41.250 0  
 17 03 16 06 00 57.0000000  0  6G02G05G12G21G25G29                  
  20962371.220  110158001.027         37.000 0  

  22492475.900  118198751.613         56.250 0  
  22492473.120   92102913.074         45.750 0  
  20892860.120  109792605.555         57.500 0  
  20892856.620   85552650.555         48.500 0  
  20851540.260  109583259.738         31.000 0  

  20618695.760  108351954.059         52.000 0  
  20618694.660   84430054.949         45.750 0  
  21873227.020  114944595.316         51.500 0  
  21873225.380   89567141.621         41.000 0  
 17 03 16 06 00 58.0000000  0  6G02G05G12G21G25G29                  
  20962602.640  110159217.906         37.000 0  

  22491936.180  118195915.727         56.250 0  
  22491933.520   92100703.289         46.000 0  
  20893287.360  109794852.773         57.500 0  
  20893284.100   85554401.637         48.000 0  
  20851967.360  109586506.941         31.000 0  

  20618583.800  108351363.238         51.750 0  
  20618582.480   84429594.570         45.500 0  
  21872754.460  114942112.879         51.250 0  
  21872752.840   89565207.230         41.250 0  
 17 03 16 06 00 59.0000000  0  6G02G05G12G21G25G29                  
  20962834.080  110160433.902         37.000 0  

  22491396.320  118193078.957         56.250 0  
  22491393.580   92098492.816         46.000 0  
  20893714.400  109797099.215         57.250 0  
  20893711.360   85556152.113         47.500 0  
  20852392.920  109589753.402         30.750 0  

  20618471.400  108350771.777         51.500 0  
  20618469.980   84429133.684         45.750 0  
  21872281.880  114939629.371         51.250 0  
  21872279.860   89563272.020         41.250 0  
 17 03 16 06 01  0.0000000  0  6G02G05G12G21G25G29                  
  20963065.100  110161647.047         37.000 0  

  22490855.980  118190239.344         56.250 0  
  22490852.960   92096280.125         46.000 0  
  20894140.660  109799342.926         56.750 0  
  20894137.720   85557900.449         47.250 0  
  20852817.680  109592997.117         30.500 0  

  20618358.500  108350177.680         51.750 0  
  20618356.760   84428670.746         46.000 0  
  21871808.600  114937142.840         51.000 0  
  21871806.580   89561334.465         41.500 0  
 17 03 16 06 01  1.0000000  0  5G02G05G12G25G29                     
  20963295.200  110162859.559         37.250 0  

  22490315.400  118187399.098         56.250 0  
  22490312.860   92094066.941         46.000 0  
  20894566.560  109801586.121         56.500 0  
  20894564.320   85559648.395         47.000 0  
  20618245.320  108349583.184         51.750 0  
  20618243.400   84428207.492         46.000 0  
  21871335.260  114934655.516         50.750 0  
  21871333.040   89559396.289         41.500 0  
 17 03 16 06 01  2.0000000  0  5G02G05G12G25G29                     
  20963525.800  110164073.062         37.500 0  

  22489775.040  118184559.832         56.250 0  
  22489772.880   92091854.516         46.000 0  
  20894992.760  109803830.387         56.000 0  
  20894991.320   85561397.160         46.500 0  
  20618132.100  108348989.895         51.250 0  
  20618130.720   84427745.188         46.000 0  
  21870862.120  114932168.969         50.500 0  
  21870859.680   89557458.707         41.750 0  
 17 03 16 06 01  3.0000000  0  5G02G05G12G25G29                     
  20963756.460  110165287.973         37.500 0  

  22489234.860  118181721.973         55.750 0  
  22489232.980   92089643.199         46.000 0  
  20895419.480  109806076.176         55.750 0  
  20895418.880   85563147.117         46.750 0  
  20618019.240  108348398.234         51.250 0  
  20618017.980   84427284.148         46.250 0  
  21870389.020  114929683.648         50.500 0  
  21870387.140   89555522.094         41.750 0  
 17 03 16 06 01  4.0000000  0  5G02G05G12G25G29                     
  20963988.260  110166504.301         37.500 0  

  22488694.900  118178885.523         56.000 0  
  22488693.420   92087432.969         46.000 0  
  20895846.880  109808323.473         55.250 0  
  20895846.700   85564898.246         47.250 0  
  20617906.880  108347808.215         51.500 0  
  20617905.700   84426824.391         46.000 0  
  21869916.440  114927199.555         50.750 0  
  21869914.400   89553586.426         42.000 0  
 17 03 16 06 01  5.0000000  0  5G02G05G12G25G29                     
  20964219.840  110167722.605         37.750 0  

  22488155.640  118176051.082         56.250 0  
  22488153.800   92085224.309         46.000 0  
  20896274.820  109810572.883         55.250 0  
  20896275.220   85566651.027         47.500 0  
  20617794.660  108347220.422         51.500 0  
  20617793.940   84426366.355         46.000 0  
  21869444.000  114924717.281         50.750 0  
  21869442.480   89551652.176         42.000 0  
 17 03 16 06 01  6.0000000  0  5G02G05G12G25G29                     
  20964451.420  110168941.387         37.750 0  

  22487616.780  118173217.102         56.500 0  
  22487614.280   92083016.000         45.750 0  
  20896703.080  109812822.859         55.500 0  
  20896703.500   85568404.242         47.750 0  
  20617682.880  108346633.309         51.500 0  
  20617682.220   84425908.863         46.000 0  
  21868971.860  114922235.289         50.500 0  
  21868970.120   89549718.152         41.500 0  
 17 03 16 06 01  7.0000000  0  5G02G05G12G25G29                     
  20964683.480  110170163.742         37.500 0  

  22487078.320  118170386.703         56.500 0  
  22487075.280   92080810.488         45.500 0  
  20897132.120  109815076.516         55.500 0  
  20897132.640   85570160.332         47.750 0  
  20617571.800  108346050.004         51.500 0  
  20617571.060   84425454.336         46.000 0  
  21868500.040  114919756.691         50.250 0  
  21868498.580   89547786.770         41.250 0  
 17 03 16 06 01  8.0000000  0  6G02G05G12G21G25G29                  
  20964917.080  110171389.730         37.000 0  

  22486540.560  118167559.934         56.500 0  
  22486537.360   92078607.812         45.250 0  
  20897562.720  109817333.895         55.250 0  
  20897562.480   85571919.320         48.250 0  
  20856242.220  109600993.051         30.250 0  

  20617461.700  108345470.543         51.250 0  
  20617461.100   84425002.797         46.250 0  
  21868029.100  114917281.539         50.250 0  
  21868027.100   89545858.070         41.000 0  
 17 03 16 06 01  9.0000000  0  6G02G05G12G21G25G29                  
  20965149.740  110172614.562         36.750 0  

  22486002.440  118164732.031         56.500 0  
  22485999.180   92076404.246         45.250 0  
  20897993.120  109819590.242         55.250 0  
  20897992.180   85573677.500         48.250 0  
  20856671.320  109604249.395         30.500 0  

  20617351.260  108344890.176         51.000 0  
  20617350.620   84424550.559         46.500 0  
  21867557.900  114914805.070         50.250 0  
  21867555.940   89543928.363         41.000 0  
 17 03 16 06 01 10.0000000  0  6G02G05G12G21G25G29                  
  20965383.340  110173840.586         36.750 0  

  22485464.380  118161905.320         56.500 0  
  22485461.240   92074201.609         45.000 0  
  20898423.760  109821847.891         55.500 0  
  20898422.100   85575436.695         48.250 0  
  20857101.400  109607507.062         31.000 0  

  20617241.080  108344311.227         51.000 0  
  20617240.780   84424099.426         46.750 0  
  21867086.900  114912329.613         50.250 0  
  21867084.820   89541999.410         40.750 0  
 17 03 16 06 05 40.0000000  0  6G02G05G12G21G25G29                  
  21030869.940  110517969.820         34.500 1  

  22342845.960  117412441.562         58.000 0  
  22342845.000   91490202.273         48.500 0  
  21017645.000  110448368.203         56.000 0  
  21017644.800   86063632.383         52.250 0  
  20976324.520  110264050.969         31.000 0  

  20591615.200  108209654.492         49.250 0  
  20591614.600   84319170.324         46.000 0  
  21741191.360  114250733.027         50.250 0  
  21741185.820   89026500.816         35.500 0  
 17 03 16 06 05 41.0000000  0  6G02G05G12G21G25G29                  
  21031122.660  110519300.059         35.000 0  

  22342329.640  117409725.801         58.000 0  
  22342328.380   91488086.094         48.750 0  
  21018100.760  110450758.562         56.250 0  
  21018099.600   86065494.988         52.250 0  
  20976779.500  110267441.312         31.500 0  

  20591537.220  108209244.223         49.250 0  
  20591536.120   84318850.637         46.000 0  
  21740731.320  114248315.973         49.750 0  
  21740725.340   89024617.379         35.500 0  
 17 03 16 06 05 42.0000000  0  6G02G05G12G21G25G29                  
  21031376.880  110520634.645         34.750 0  

  22341813.920  117407014.453         57.500 0  
  22341812.340   91485973.348         49.000 0  
  21018557.260  110453153.391         56.250 0  
  21018555.220   86067361.086         52.500 0  
  20977235.680  110270836.141         31.750 0  

  20591460.080  108208838.582         49.500 0  
  20591458.900   84318534.543         46.000 0  
  21740271.880  114245903.137         49.750 0  
  21740265.480   89022737.246         35.500 0  
 17 03 16 06 05 43.0000000  0  6G02G05G12G21G25G29                  
  21031630.880  110521971.105         34.750 0  

  22341298.180  117404304.996         57.250 0  
  22341296.720   91483862.078         49.250 0  
  21019014.140  110455550.160         56.500 0  
  21019011.200   86069228.695         52.250 0  
  20977692.640  110274232.914         31.750 0  

  20591383.340  108208435.023         49.250 0  
  20591382.620   84318220.074         46.000 0  
  21739812.960  114243491.973         50.000 0  
  21739806.240   89020858.430         35.250 0  
 17 03 16 06 05 44.0000000  0  6G02G05G12G21G25G29                  
  21031883.980  110523302.504         35.000 0  

  22340781.580  117401590.543         57.500 0  
  22340780.200   91481746.914         49.500 0  
  21019470.000  110457941.996         56.750 0  
  21019466.160   86071092.457         52.250 0  
  20978148.480  110277624.758         31.750 0  

  20591305.760  108208026.672         49.500 0  
  20591305.040   84317901.875         46.000 0  
  21739353.160  114241075.621         50.000 0  
  21739346.680   89018975.574         35.250 0  
 17 03 16 06 05 45.0000000  0  6G02G05G12G21G25G29                  
  21032138.200  110524631.387         35.000 0  

  22340264.380  117398873.629         57.500 0  
  22340263.280   91479629.836         49.500 0  
  21019925.220  110460331.438         57.000 0  
  21019920.700   86072954.363         52.000 0  
  20978603.600  110281014.195         31.750 0  

  20591227.580  108207616.086         49.250 0  
  20591227.000   84317581.930         46.250 0  
  21738892.580  114238656.613         49.500 0  
  21738886.940   89017090.578         35.500 0  
 17 03 16 06 05 46.0000000  0  6G02G05G12G21G25G29                  
  21032393.220  110525962.051         35.000 0  

  22339747.600  117396158.504         57.500 0  
  22339747.000   91477514.148         49.750 0  
  21020380.720  110462722.727         57.250 0  
  21020375.860   86074817.703         52.000 0  
  20979059.940  110284405.477         31.750 0  

  20591149.940  108207207.488         48.250 0  
  20591149.180   84317263.527         46.000 0  
  21738432.260  114236239.184         49.750 0  
  21738426.920   89015206.863         35.500 0  
 17 03 16 06 05 47.0000000  0  6G02G05G12G21G25G29                  
  21032647.780  110527299.070         35.250 0  

  22339232.180  117393449.805         57.250 0  
  22339231.620   91475403.469         49.500 0  
  21020837.340  110465120.484         57.500 0  
  21020832.160   86076686.090         51.750 0  
  20979517.420  110287803.250         31.500 0  

  20591073.600  108206805.512         48.000 0  
  20591072.740   84316950.301         46.000 0  
  21737973.140  114233827.965         49.750 0  
  21737967.260   89013328.000         35.500 0  
 17 03 16 06 05 48.0000000  0  6G02G05G12G21G25G29                  
  21032901.580  110528632.199         35.500 0  

  22338716.040  117390737.273         57.000 0  
  22338715.460   91473289.805         49.750 0  
  21021293.020  110467514.484         57.500 0  
  21021287.800   86078551.535         52.000 0  
  20979972.080  110291197.234         31.500 0  

  20590996.860  108206399.914         48.250 0  
  20590995.460   84316634.242         46.250 0  
  21737513.440  114231412.727         49.250 0  
  21737507.640   89011445.980         35.500 0  
 17 03 16 06 05 49.0000000  0  6G02G05G12G21G25G29                  
  21033154.440  110529958.766         35.750 0  

  22338198.740  117388018.199         57.250 0  
  22338198.000   91471171.039         50.000 0  
  21021747.140  110469901.980         57.500 0  
  21021742.260   86080411.926         52.250 0  
  20980425.180  110294584.746         31.500 0  

  20590918.820  108205987.965         48.250 0  
  20590916.980   84316313.246         46.500 0  
  21737052.600  114228990.723         49.500 0  
  21737047.800   89009558.711         35.750 0  
 17 03 16 06 05 50.0000000  0  6G02G05G12G21G25G29                  
  21033406.920  110531284.508         36.000 0  

  22337681.180  117385298.352         57.500 0  
  22337680.520   91469051.672         50.000 0  
  21022200.400  110472288.766         57.250 0  
  21022196.620   86082271.754         52.750 0  
  20980877.620  110297971.531         31.250 0  

  20590840.360  108205575.441         48.500 0  
  20590838.660   84315991.793         46.500 0  
  21736591.460  114226567.742         49.500 0  
  21736587.700   89007670.680         36.000 0  
 17 03 16 06 05 51.0000000  0  6G02G05G12G21G25G29                  
  21033659.440  110532613.984         36.000 0  

  22337164.440  117382582.324         57.500 0  
  22337163.920   91466935.281         50.000 0  
  21022654.460  110474679.438         57.250 0  
  21022652.220   86084134.609         52.750 0  
  20981333.140  110301362.191         30.500 0  

  20590762.740  108205166.945         48.750 0  
  20590760.740   84315673.473         46.250 0  
  21736131.120  114224148.379         49.250 0  
  21736127.460   89005785.449         36.250 0  
 17 03 16 06 05 52.0000000  0  6G02G05G12G21G25G29                  
  21033912.000  110533942.156         36.000 0  

  22336647.400  117379865.016         57.750 0  
  22336646.960   91464817.887         50.250 0  
  21023108.600  110477068.875         56.750 0  
  21023107.600   86085996.504         52.750 0  
  20981787.380  110304751.617         30.750 0  

  20590684.900  108204757.363         48.750 0  
  20590682.680   84315354.316         46.000 0  
  21735670.780  114221727.527         49.500 0  
  21735667.400   89003899.070         36.500 0  
 17 03 16 06 05 53.0000000  0  6G02G05G12G21G25G29                  
  21034165.700  110535273.336         36.000 0  

  22336130.880  117377150.766         58.000 0  
  22336130.500   91462702.887         50.500 0  
  21023563.540  110479461.434         56.500 0  
  21023563.160   86087860.824         53.000 0  
  20982241.040  110308144.176         30.500 0  

  20590607.620  108204351.047         48.500 0  
  20590605.200   84315037.699         46.000 0  
  21735210.980  114219309.527         49.000 0  
  21735207.120   89002014.910         36.750 0  
 17 03 16 06 05 54.0000000  0  6G02G05G12G21G25G29                  
  21034420.320  110536607.543         35.750 0  

  22335614.920  117374439.594         57.750 0  
  22335614.640   91460590.281         50.500 0  
  21024019.040  110481857.121         56.250 0  
  21024019.180   86089727.582         53.000 0  
  20982696.500  110311539.879         30.250 0  

  20590530.960  108203947.992         48.750 0  
  20590528.940   84314723.629         46.000 0  
  21734751.520  114216894.395         49.000 0  
  21734747.300   89000132.969         37.000 0  
 17 03 16 06 05 55.0000000  0  5G02G05G12G25G29                     
  21034673.980  110537944.488         35.750 0  

  22335099.400  117371731.246         57.750 0  
  22335099.260   91458479.879         50.500 0  
  21024474.980  110484255.691         56.250 0  
  21024475.780   86091596.586         53.000 0  
  20590454.960  108203547.973         49.250 0  
  20590452.940   84314411.914         46.250 0  
  21734292.280  114214481.887         49.750 0  
  21734287.940   88998253.102         37.000 0  
 17 03 16 06 05 56.0000000  0  5G02G05G12G25G29                     
  21034927.000  110539281.875         35.750 0  

  22334584.020  117369023.344         57.750 0  
  22334584.140   91456369.820         50.250 0  
  21024930.900  110486654.754         56.000 0  
  21024932.680   86093465.969         53.000 0  
  20590379.080  108203148.594         49.500 0  
  20590377.300   84314100.707         46.500 0  
  21733833.240  114212069.617         49.750 0  
  21733828.640   88996373.391         37.250 0  
 17 03 16 06 05 57.0000000  0  5G02G05G12G25G29                     
  21035180.520  110540613.867         35.250 0  

  22334067.600  117366310.117         57.500 0  
  22334067.940   91454255.613         50.250 0  
  21025385.860  110489048.562         55.750 0  
  21025388.000   86095331.262         53.250 0  
  20590302.020  108202744.109         49.000 0  
  20590300.300   84313785.516         46.250 0  
  21733373.200  114209651.812         49.750 0  
  21733368.460   88994489.387         37.500 0  
